{
  "generated_at": "2026-07-16T19:19:44Z",
  "source": "supercharge.info",
  "source_url": "https://supercharge.info",
  "countries": [
    "Australia",
    "Austria",
    "Belgium",
    "Bosnia and Herzegovina",
    "Bulgaria",
    "Canada",
    "Chile",
    "China",
    "Colombia",
    "Croatia",
    "Czech Republic",
    "Denmark",
    "Estonia",
    "Finland",
    "France",
    "Germany",
    "Greece",
    "Hungary",
    "Iceland",
    "India",
    "Ireland",
    "Israel",
    "Italy",
    "Japan",
    "Jordan",
    "Kazakhstan",
    "Latvia",
    "Liechtenstein",
    "Lithuania",
    "Luxembourg",
    "Malaysia",
    "Mexico",
    "Morocco",
    "Netherlands",
    "New Zealand",
    "Norway",
    "Oman",
    "Philippines",
    "Poland",
    "Portugal",
    "Qatar",
    "Romania",
    "Saudi Arabia",
    "Serbia",
    "Singapore",
    "Slovakia",
    "Slovenia",
    "South Korea",
    "Spain",
    "Sweden",
    "Switzerland",
    "Taiwan",
    "Thailand",
    "Turkey",
    "USA",
    "United Arab Emirates",
    "United Kingdom"
  ],
  "count": 9290,
  "locations": [
    {
      "id": 1,
      "name": "Zwolle, Netherlands",
      "latitude": 52.532094,
      "longitude": 6.156868,
      "city": "Zwolle",
      "state": "Overijssel",
      "country": "Netherlands"
    },
    {
      "id": 2,
      "name": "Almere, Netherlands",
      "latitude": 52.358155,
      "longitude": 5.251618,
      "city": "Almere",
      "state": "Flevoland",
      "country": "Netherlands"
    },
    {
      "id": 3,
      "name": "Venray, Netherlands",
      "latitude": 51.547166,
      "longitude": 5.997111,
      "city": "Venray",
      "state": "Limburg",
      "country": "Netherlands"
    },
    {
      "id": 4,
      "name": "Groningen, Netherlands",
      "latitude": 53.196459,
      "longitude": 6.515921,
      "city": "Eelderwolde",
      "state": "Drenthe",
      "country": "Netherlands"
    },
    {
      "id": 5,
      "name": "Spier, Netherlands",
      "latitude": 52.816836,
      "longitude": 6.462488,
      "city": "Spier",
      "state": "Drenthe",
      "country": "Netherlands"
    },
    {
      "id": 6,
      "name": "Gorinchem, Netherlands",
      "latitude": 51.841365,
      "longitude": 5.009042,
      "city": "Gorinchem",
      "state": "South Holland",
      "country": "Netherlands"
    },
    {
      "id": 7,
      "name": "Arnhem, Netherlands",
      "latitude": 52.015874,
      "longitude": 5.92948,
      "city": "Arnhem",
      "state": "Gelderland",
      "country": "Netherlands"
    },
    {
      "id": 8,
      "name": "Utrecht, Netherlands",
      "latitude": 52.108379,
      "longitude": 5.053235,
      "city": "Utrecht",
      "state": "Utrecht",
      "country": "Netherlands"
    },
    {
      "id": 9,
      "name": "Hoorn, Netherlands",
      "latitude": 52.65077,
      "longitude": 5.038916,
      "city": "Hoorn",
      "state": "North Holland",
      "country": "Netherlands"
    },
    {
      "id": 10,
      "name": "Nieuwerkerk aan den Ijssel, Netherlands",
      "latitude": 51.97842,
      "longitude": 4.618955,
      "city": "Nieuwerkerk A / D Ijssel",
      "state": "Noord Holland",
      "country": "Netherlands"
    },
    {
      "id": 11,
      "name": "Dordrecht, Netherlands",
      "latitude": 51.774432,
      "longitude": 4.653144,
      "city": "Dordrecht",
      "state": "South Holland",
      "country": "Netherlands"
    },
    {
      "id": 12,
      "name": "Apeldoorn, Netherlands",
      "latitude": 52.178312,
      "longitude": 5.912638,
      "city": "Ugchelen",
      "state": "Gelderland",
      "country": "Netherlands"
    },
    {
      "id": 13,
      "name": "Houten, Netherlands",
      "latitude": 52.026212,
      "longitude": 5.138301,
      "city": "Houten",
      "state": "Utrecht",
      "country": "Netherlands"
    },
    {
      "id": 14,
      "name": "Zaltbommel, Netherlands",
      "latitude": 51.796307,
      "longitude": 5.25471,
      "city": "Zaltbommel",
      "state": "Gelderland",
      "country": "Netherlands"
    },
    {
      "id": 15,
      "name": "Emmeloord, Netherlands",
      "latitude": 52.727433,
      "longitude": 5.764662,
      "city": "Emmeloord",
      "state": "Flevoland",
      "country": "Netherlands"
    },
    {
      "id": 16,
      "name": "Zevenaar, Netherlands",
      "latitude": 51.940612,
      "longitude": 6.081834,
      "city": "Zevenaar",
      "state": "Gelderland",
      "country": "Netherlands"
    },
    {
      "id": 17,
      "name": "Gouda, Netherlands",
      "latitude": 52.022589,
      "longitude": 4.684789,
      "city": "Gouda",
      "state": "South Holland",
      "country": "Netherlands"
    },
    {
      "id": 18,
      "name": "'s-Hertogenbosch, Netherlands",
      "latitude": 51.720505,
      "longitude": 5.333474,
      "city": "Rosmalen",
      "state": "North Brabant",
      "country": "Netherlands"
    },
    {
      "id": 19,
      "name": "Urmond, Netherlands",
      "latitude": 50.9894,
      "longitude": 5.781494,
      "city": "Urmond",
      "state": "Limburg",
      "country": "Netherlands"
    },
    {
      "id": 20,
      "name": "Oosterhout, Netherlands",
      "latitude": 51.626609,
      "longitude": 4.869949,
      "city": "Oosterhout",
      "state": "North Brabant",
      "country": "Netherlands"
    },
    {
      "id": 21,
      "name": "Eindhoven, Netherlands",
      "latitude": 51.407076,
      "longitude": 5.479626,
      "city": "Eindhoven",
      "state": "North Brabant",
      "country": "Netherlands"
    },
    {
      "id": 22,
      "name": "Vuren, Netherlands",
      "latitude": 51.839019,
      "longitude": 5.090619,
      "city": "Vuren",
      "state": "Gelderland",
      "country": "Netherlands"
    },
    {
      "id": 23,
      "name": "Badhoevedorp, Netherlands",
      "latitude": 52.329315,
      "longitude": 4.784901,
      "city": "Badhoevedorp",
      "state": "North Holland",
      "country": "Netherlands"
    },
    {
      "id": 24,
      "name": "Breukelen, Netherlands",
      "latitude": 52.167147,
      "longitude": 4.989167,
      "city": "Breukelen",
      "state": "Utrecht",
      "country": "Netherlands"
    },
    {
      "id": 25,
      "name": "Leiderdorp, Netherlands",
      "latitude": 52.160747,
      "longitude": 4.548987,
      "city": "Leiderdorp",
      "state": "South Holland",
      "country": "Netherlands"
    },
    {
      "id": 26,
      "name": "Breda, Netherlands",
      "latitude": 51.577497,
      "longitude": 4.729994,
      "city": "Breda",
      "state": "North Brabant",
      "country": "Netherlands"
    },
    {
      "id": 27,
      "name": "Emmen, Netherlands",
      "latitude": 52.724193,
      "longitude": 6.883434,
      "city": "Nieuw Amsterdam",
      "state": "Drenthe",
      "country": "Netherlands"
    },
    {
      "id": 28,
      "name": "Best, Netherlands",
      "latitude": 51.490963,
      "longitude": 5.424585,
      "city": "Eindhoven",
      "state": "North Brabant",
      "country": "Netherlands"
    },
    {
      "id": 29,
      "name": "Middelburg, Netherlands",
      "latitude": 51.480271,
      "longitude": 3.636483,
      "city": "Middelburg",
      "state": "Zeeland",
      "country": "Netherlands"
    },
    {
      "id": 30,
      "name": "Uden, Netherlands",
      "latitude": 51.671432,
      "longitude": 5.603,
      "city": "Uden",
      "state": "North Brabant",
      "country": "Netherlands"
    },
    {
      "id": 31,
      "name": "Meerkerk, Netherlands",
      "latitude": 51.899537,
      "longitude": 4.98297,
      "city": "Meerkerk",
      "state": "Utrecht",
      "country": "Netherlands"
    },
    {
      "id": 32,
      "name": "Zuidbroek, Netherlands",
      "latitude": 53.169559,
      "longitude": 6.853017,
      "city": "Zuidbroek",
      "state": "Groningen",
      "country": "Netherlands"
    },
    {
      "id": 33,
      "name": "Tilburg, Netherlands",
      "latitude": 51.543035,
      "longitude": 5.111853,
      "city": "Tilburg",
      "state": "North Brabant",
      "country": "Netherlands"
    },
    {
      "id": 34,
      "name": "Schiedam, Netherlands",
      "latitude": 51.924774,
      "longitude": 4.372046,
      "city": "Schiedam",
      "state": "South Holland",
      "country": "Netherlands"
    },
    {
      "id": 35,
      "name": "Maastricht, Netherlands",
      "latitude": 50.816461,
      "longitude": 5.725403,
      "city": "Maastricht",
      "state": "Limburg",
      "country": "Netherlands"
    },
    {
      "id": 36,
      "name": "Weert, Netherlands",
      "latitude": 51.281764,
      "longitude": 5.650993,
      "city": "Weert",
      "state": "Limburg",
      "country": "Netherlands"
    },
    {
      "id": 37,
      "name": "Bunnik, Netherlands",
      "latitude": 52.061033,
      "longitude": 5.205145,
      "city": "Bunnik",
      "state": "Utrecht",
      "country": "Netherlands"
    },
    {
      "id": 38,
      "name": "Enschede, Netherlands",
      "latitude": 52.202915,
      "longitude": 6.888635,
      "city": "Enschede",
      "state": "Overijssel",
      "country": "Netherlands"
    },
    {
      "id": 39,
      "name": "Heerlen, Netherlands",
      "latitude": 50.893015,
      "longitude": 5.955577,
      "city": "Heerlen",
      "state": "Limburg",
      "country": "Netherlands"
    },
    {
      "id": 40,
      "name": "Wolvega, Netherlands",
      "latitude": 52.880469,
      "longitude": 6.021283,
      "city": "Wolvega",
      "state": "Friesland",
      "country": "Netherlands"
    },
    {
      "id": 41,
      "name": "Horst, Netherlands",
      "latitude": 51.470064,
      "longitude": 6.057133,
      "city": "Horst",
      "state": "Limburg",
      "country": "Netherlands"
    },
    {
      "id": 42,
      "name": "Eemnes, Netherlands",
      "latitude": 52.23557,
      "longitude": 5.230046,
      "city": "Eemnes",
      "state": "Utrecht",
      "country": "Netherlands"
    },
    {
      "id": 43,
      "name": "Drachten, Netherlands",
      "latitude": 53.105859,
      "longitude": 6.129597,
      "city": "Drachten",
      "state": "Friesland",
      "country": "Netherlands"
    },
    {
      "id": 44,
      "name": "Duiven, Netherlands",
      "latitude": 51.958974,
      "longitude": 6.020483,
      "city": "Duiven",
      "state": "Gelderland",
      "country": "Netherlands"
    },
    {
      "id": 45,
      "name": "Apeldoorn Oost, Netherlands",
      "latitude": 52.204697,
      "longitude": 6.016106,
      "city": "Apeldoorn",
      "state": "Gelderland",
      "country": "Netherlands"
    },
    {
      "id": 46,
      "name": "Assen, Netherlands",
      "latitude": 52.992903,
      "longitude": 6.524594,
      "city": "Assen",
      "state": "Drenthe",
      "country": "Netherlands"
    },
    {
      "id": 47,
      "name": "Akersloot, Netherlands",
      "latitude": 52.547533,
      "longitude": 4.722747,
      "city": "Akersloot",
      "state": "North Holland",
      "country": "Netherlands"
    },
    {
      "id": 48,
      "name": "Leusden, Netherlands",
      "latitude": 52.144045,
      "longitude": 5.416882,
      "city": "Leusden",
      "state": "Utrecht",
      "country": "Netherlands"
    },
    {
      "id": 49,
      "name": "Hengelo, Netherlands",
      "latitude": 52.287263,
      "longitude": 6.773263,
      "city": "Hengelo",
      "state": "Overijssel",
      "country": "Netherlands"
    },
    {
      "id": 50,
      "name": "Deventer, Netherlands",
      "latitude": 52.233427,
      "longitude": 6.210206,
      "city": "Deventer",
      "state": "Overijssel",
      "country": "Netherlands"
    },
    {
      "id": 51,
      "name": "Harderwijk, Netherlands",
      "latitude": 52.335896,
      "longitude": 5.643557,
      "city": "Harderwijk",
      "state": "Gelderland",
      "country": "Netherlands"
    },
    {
      "id": 52,
      "name": "Rijswijk, Netherlands",
      "latitude": 52.048285,
      "longitude": 4.349092,
      "city": "Rijswijk",
      "state": "South Holland",
      "country": "Netherlands"
    },
    {
      "id": 53,
      "name": "Sassenheim, Netherlands",
      "latitude": 52.213222,
      "longitude": 4.503388,
      "city": "Sassenheim",
      "state": "South Holland",
      "country": "Netherlands"
    },
    {
      "id": 54,
      "name": "Ridderkerk, Netherlands",
      "latitude": 51.86788,
      "longitude": 4.557697,
      "city": "Ridderkerk",
      "state": "South Holland",
      "country": "Netherlands"
    },
    {
      "id": 55,
      "name": "Haarlem, Netherlands",
      "latitude": 52.369413,
      "longitude": 4.648281,
      "city": "Haarlem",
      "state": "Noord Holland",
      "country": "Netherlands"
    },
    {
      "id": 56,
      "name": "Roosendaal, Netherlands",
      "latitude": 51.566501,
      "longitude": 4.469815,
      "city": "Oud Gastel",
      "state": "North Brabant",
      "country": "Netherlands"
    },
    {
      "id": 57,
      "name": "Nootdorp, Netherlands",
      "latitude": 52.052667,
      "longitude": 4.402125,
      "city": "Nootdorp",
      "state": "South Holland",
      "country": "Netherlands"
    },
    {
      "id": 58,
      "name": "Arlon, Belgium",
      "latitude": 49.647975,
      "longitude": 5.818863,
      "city": "Arlon",
      "state": "Luxembourg",
      "country": "Belgium"
    },
    {
      "id": 59,
      "name": "Kortrijk, Belgium",
      "latitude": 50.805626,
      "longitude": 3.274434,
      "city": "Kortrijk",
      "state": "West Flanders",
      "country": "Belgium"
    },
    {
      "id": 60,
      "name": "Aalst, Belgium",
      "latitude": 50.9215,
      "longitude": 4.03255,
      "city": "Aalst",
      "state": "East Flanders",
      "country": "Belgium"
    },
    {
      "id": 61,
      "name": "Charleroi, Belgium",
      "latitude": 50.45232,
      "longitude": 4.430372,
      "city": "Jumet",
      "state": "Hainaut",
      "country": "Belgium"
    },
    {
      "id": 62,
      "name": "Marche-en-Famenne, Belgium",
      "latitude": 50.223142,
      "longitude": 5.330041,
      "city": "Marche-en-Famenne",
      "state": "Wallonia",
      "country": "Belgium"
    },
    {
      "id": 63,
      "name": "Braine-l'Alleud, Belgium",
      "latitude": 50.661582,
      "longitude": 4.380475,
      "city": "Braine-l'Alleud",
      "state": "Wallonia",
      "country": "Belgium"
    },
    {
      "id": 64,
      "name": "Ghent, Belgium",
      "latitude": 51.0181,
      "longitude": 3.7367,
      "city": "Gent",
      "state": "Flemish",
      "country": "Belgium"
    },
    {
      "id": 65,
      "name": "Couvin, Belgium",
      "latitude": 50.083829,
      "longitude": 4.523928,
      "city": "Couvin",
      "state": "Wallonia",
      "country": "Belgium"
    },
    {
      "id": 66,
      "name": "Stekene, Belgium",
      "latitude": 51.235967,
      "longitude": 4.059485,
      "city": "Stekene",
      "state": "East Flanders",
      "country": "Belgium"
    },
    {
      "id": 67,
      "name": "Nivelles-Sud, Belgium",
      "latitude": 50.5887,
      "longitude": 4.30812,
      "city": "Nivelles",
      "state": "Walloon Brabant",
      "country": "Belgium"
    },
    {
      "id": 68,
      "name": "Edegem, Belgium",
      "latitude": 51.151096,
      "longitude": 4.432665,
      "city": "Edegem",
      "state": "Antwerp",
      "country": "Belgium"
    },
    {
      "id": 69,
      "name": "Remouchamps, Belgium",
      "latitude": 50.48391,
      "longitude": 5.70041,
      "city": "Remouchamps",
      "state": "Liège",
      "country": "Belgium"
    },
    {
      "id": 70,
      "name": "Anderlecht, Belgium",
      "latitude": 50.837862,
      "longitude": 4.288291,
      "city": "Anderlecht",
      "state": "Brussels Capital Region",
      "country": "Belgium"
    },
    {
      "id": 71,
      "name": "Machelen, Belgium",
      "latitude": 50.887736,
      "longitude": 4.453052,
      "city": "Machelen",
      "state": "Flemish Brabant",
      "country": "Belgium"
    },
    {
      "id": 72,
      "name": "Brugge, Belgium",
      "latitude": 51.16997,
      "longitude": 3.19666,
      "city": "Brugge",
      "state": "West Flanders",
      "country": "Belgium"
    },
    {
      "id": 73,
      "name": "Hasselt, Belgium",
      "latitude": 50.951555,
      "longitude": 5.352944,
      "city": "Hasselt",
      "state": "Limburg",
      "country": "Belgium"
    },
    {
      "id": 74,
      "name": "Brussels, Belgium",
      "latitude": 50.878699,
      "longitude": 4.373226,
      "city": "Brussels",
      "state": "Brussels Capital Region",
      "country": "Belgium"
    },
    {
      "id": 75,
      "name": "Luxembourg Urban, Luxembourg",
      "latitude": 49.582461,
      "longitude": 6.126205,
      "city": "Luxembourg",
      "state": "Luxembourg",
      "country": "Luxembourg"
    },
    {
      "id": 76,
      "name": "Diegem, Belgium",
      "latitude": 50.883995,
      "longitude": 4.443644,
      "city": "Machelen",
      "state": "Flemish Brabant",
      "country": "Belgium"
    },
    {
      "id": 77,
      "name": "Zaventem, Belgium",
      "latitude": 50.869902,
      "longitude": 4.502097,
      "city": "Zaventem",
      "state": "Flemish Brabant",
      "country": "Belgium"
    },
    {
      "id": 78,
      "name": "Mons, Belgium",
      "latitude": 50.45654,
      "longitude": 3.94022,
      "city": "Mons",
      "state": "Hainaut",
      "country": "Belgium"
    },
    {
      "id": 79,
      "name": "Antwerp, Belgium",
      "latitude": 51.26812,
      "longitude": 4.40286,
      "city": "Antwerp",
      "state": "Antwerp",
      "country": "Belgium"
    },
    {
      "id": 80,
      "name": "Heusden-Zolder, Belgium",
      "latitude": 50.993363,
      "longitude": 5.242222,
      "city": "Heusden-Zolder",
      "state": "Limburg",
      "country": "Belgium"
    },
    {
      "id": 81,
      "name": "Namur, Belgium",
      "latitude": 50.48591,
      "longitude": 4.79719,
      "city": "Rhisnes",
      "state": "Namur",
      "country": "Belgium"
    },
    {
      "id": 82,
      "name": "Verviers, Belgium",
      "latitude": 50.592323,
      "longitude": 5.848511,
      "city": "Verviers",
      "state": "Liège",
      "country": "Belgium"
    },
    {
      "id": 83,
      "name": "Lokeren, Belgium",
      "latitude": 51.095118,
      "longitude": 4.011868,
      "city": "Lokeren",
      "state": "East Flanders",
      "country": "Belgium"
    },
    {
      "id": 84,
      "name": "Liège, Belgium",
      "latitude": 50.671274,
      "longitude": 5.543516,
      "city": "Liège",
      "state": "Liège",
      "country": "Belgium"
    },
    {
      "id": 85,
      "name": "Wavre, Belgium",
      "latitude": 50.708062,
      "longitude": 4.598276,
      "city": "Wavre",
      "state": "Walloon Brabant",
      "country": "Belgium"
    },
    {
      "id": 86,
      "name": "Ashburn, VA",
      "latitude": 39.008355,
      "longitude": -77.501839,
      "city": "Ashburn",
      "state": "VA",
      "country": "USA"
    },
    {
      "id": 87,
      "name": "Foxborough, MA",
      "latitude": 42.038787,
      "longitude": -71.24038,
      "city": "Foxborough",
      "state": "MA",
      "country": "USA"
    },
    {
      "id": 88,
      "name": "Brewster, NY",
      "latitude": 41.39169,
      "longitude": -73.595175,
      "city": "Brewster",
      "state": "NY",
      "country": "USA"
    },
    {
      "id": 89,
      "name": "Severn, ON - Hwy 11",
      "latitude": 44.694916,
      "longitude": -79.399516,
      "city": "Orillia",
      "state": "ON",
      "country": "Canada"
    },
    {
      "id": 90,
      "name": "Ashland, VA",
      "latitude": 37.745769,
      "longitude": -77.472412,
      "city": "Ashland",
      "state": "VA",
      "country": "USA"
    },
    {
      "id": 91,
      "name": "Shanghai, China - Fengfa Baolong Plaza",
      "latitude": 30.938772,
      "longitude": 121.738447,
      "city": "Shanghai",
      "state": "Shanghai",
      "country": "China"
    },
    {
      "id": 92,
      "name": "Barcelona, Spain - L'Illa Diagonal",
      "latitude": 41.389482,
      "longitude": 2.133672,
      "city": "Barcelona",
      "state": "Catalonia",
      "country": "Spain"
    },
    {
      "id": 93,
      "name": "Truro, NS",
      "latitude": 45.369693,
      "longitude": -63.302354,
      "city": "Truro",
      "state": "NS",
      "country": "Canada"
    },
    {
      "id": 94,
      "name": "Sulz-Vöhringen, Germany",
      "latitude": 48.343446,
      "longitude": 8.663834,
      "city": "Vöhringen",
      "state": "Baden-Württemberg",
      "country": "Germany"
    },
    {
      "id": 95,
      "name": "Coffs Harbour, NSW - The Big Banana",
      "latitude": -30.27393,
      "longitude": 153.13256,
      "city": "Coffs Harbour",
      "state": "NSW",
      "country": "Australia"
    },
    {
      "id": 96,
      "name": "Heartlands, UK",
      "latitude": 55.863209,
      "longitude": -3.707971,
      "city": "Whitburn",
      "state": "Scotland",
      "country": "United Kingdom"
    },
    {
      "id": 97,
      "name": "Kojonup, WA, Australia",
      "latitude": -33.83746,
      "longitude": 117.15779,
      "city": "Kojonup",
      "state": "WA",
      "country": "Australia"
    },
    {
      "id": 98,
      "name": "Larkhall, UK",
      "latitude": 55.7198,
      "longitude": -3.9536,
      "city": "Larkhall",
      "state": "Scotland",
      "country": "United Kingdom"
    },
    {
      "id": 99,
      "name": "Eaton, WA, Australia",
      "latitude": -33.319613,
      "longitude": 115.717729,
      "city": "Eaton",
      "state": "WA",
      "country": "Australia"
    },
    {
      "id": 100,
      "name": "Providence, RI",
      "latitude": 41.828441,
      "longitude": -71.42697,
      "city": "Providence",
      "state": "RI",
      "country": "USA"
    },
    {
      "id": 101,
      "name": "Blacksburg, VA",
      "latitude": 37.211116,
      "longitude": -80.400493,
      "city": "Blacksburg",
      "state": "VA",
      "country": "USA"
    },
    {
      "id": 102,
      "name": "Kristiansund, Norway",
      "latitude": 63.121087,
      "longitude": 7.74136,
      "city": "Kristiansund",
      "state": "Møre og Romsdal",
      "country": "Norway"
    },
    {
      "id": 103,
      "name": "Trentham, UK",
      "latitude": 52.962735,
      "longitude": -2.196506,
      "city": "Stoke",
      "state": "England",
      "country": "United Kingdom"
    },
    {
      "id": 104,
      "name": "La Jonquera, Spain",
      "latitude": 42.401694,
      "longitude": 2.880528,
      "city": "La Jonquera",
      "state": "Catalonia",
      "country": "Spain"
    },
    {
      "id": 105,
      "name": "Miami, FL - South Dixie Hwy",
      "latitude": 25.693198,
      "longitude": -80.304898,
      "city": "Miami",
      "state": "FL",
      "country": "USA"
    },
    {
      "id": 106,
      "name": "Jinan, China - Herui Plaza",
      "latitude": 36.662369,
      "longitude": 117.071616,
      "city": "Jinan",
      "state": "Shandong",
      "country": "China"
    },
    {
      "id": 107,
      "name": "Beijing, China - Central Place Experience Store",
      "latitude": 39.914813,
      "longitude": 116.486675,
      "city": "Beijing",
      "state": "Beijing",
      "country": "China"
    },
    {
      "id": 108,
      "name": "Marmet, WV",
      "latitude": 38.241495,
      "longitude": -81.559849,
      "city": "Marmet",
      "state": "WV",
      "country": "USA"
    },
    {
      "id": 109,
      "name": "Cathedral City, CA",
      "latitude": 33.825097,
      "longitude": -116.459565,
      "city": "Cathedral City",
      "state": "CA",
      "country": "USA"
    },
    {
      "id": 110,
      "name": "Munster, IN",
      "latitude": 41.568161,
      "longitude": -87.508042,
      "city": "Munster",
      "state": "IN",
      "country": "USA"
    },
    {
      "id": 111,
      "name": "El Centro, CA",
      "latitude": 32.760837,
      "longitude": -115.532486,
      "city": "El Centro",
      "state": "CA",
      "country": "USA"
    },
    {
      "id": 112,
      "name": "Atkins, VA",
      "latitude": 36.86455,
      "longitude": -81.433527,
      "city": "Atkins",
      "state": "VA",
      "country": "USA"
    },
    {
      "id": 113,
      "name": "Northridge, CA - Corbin Ave",
      "latitude": 34.229483,
      "longitude": -118.560495,
      "city": "Northridge",
      "state": "CA",
      "country": "USA"
    },
    {
      "id": 114,
      "name": "Pleasanton, CA - 6770 Bernal Ave",
      "latitude": 37.657166,
      "longitude": -121.897969,
      "city": "Pleasanton",
      "state": "CA",
      "country": "USA"
    },
    {
      "id": 115,
      "name": "Chantilly, VA",
      "latitude": 38.913722,
      "longitude": -77.486972,
      "city": "South Riding",
      "state": "VA",
      "country": "USA"
    },
    {
      "id": 116,
      "name": "Brattleboro, VT",
      "latitude": 42.838443,
      "longitude": -72.565798,
      "city": "Brattleboro",
      "state": "VT",
      "country": "USA"
    },
    {
      "id": 117,
      "name": "Changzhou, China - Global Port",
      "latitude": 31.842569,
      "longitude": 119.975541,
      "city": "Changzhou",
      "state": "Jiangsu",
      "country": "China"
    },
    {
      "id": 118,
      "name": "Lutterberg, Germany",
      "latitude": 51.370219,
      "longitude": 9.633905,
      "city": "Staufenberg",
      "state": "Lower Saxony",
      "country": "Germany"
    },
    {
      "id": 119,
      "name": "New Rochelle, NY",
      "latitude": 40.912784,
      "longitude": -73.78146,
      "city": "New Rochelle",
      "state": "NY",
      "country": "USA"
    },
    {
      "id": 120,
      "name": "Espoo West, Finland",
      "latitude": 60.214613,
      "longitude": 24.652946,
      "city": "Espoo",
      "state": "Uusimaa",
      "country": "Finland"
    },
    {
      "id": 121,
      "name": "Edirne, Türkiye",
      "latitude": 41.680309,
      "longitude": 26.582186,
      "city": "Edirne Merkez",
      "state": "Edirne",
      "country": "Turkey"
    },
    {
      "id": 122,
      "name": "Xianyang, China - Bianfang Primary School",
      "latitude": 34.431321,
      "longitude": 108.748193,
      "city": "Xianyang",
      "state": "Shaanxi",
      "country": "China"
    },
    {
      "id": 123,
      "name": "Moers, Germany",
      "latitude": 51.441774,
      "longitude": 6.611922,
      "city": "Moers",
      "state": "North Rhine-Westphalia",
      "country": "Germany"
    },
    {
      "id": 124,
      "name": "Bealeton, VA",
      "latitude": 38.619536,
      "longitude": -77.799208,
      "city": "Bealeton",
      "state": "VA",
      "country": "USA"
    },
    {
      "id": 125,
      "name": "Bellflower, CA",
      "latitude": 33.878129,
      "longitude": -118.133456,
      "city": "Bellflower",
      "state": "CA",
      "country": "USA"
    },
    {
      "id": 126,
      "name": "Foshan, China - Wyndham Garden Hotel",
      "latitude": 23.066408,
      "longitude": 113.065264,
      "city": "Foshan",
      "state": "Guangdong",
      "country": "China"
    },
    {
      "id": 127,
      "name": "Nanping, China - Jianfa Yuecheng Center",
      "latitude": 27.337516,
      "longitude": 118.112139,
      "city": "Nanping",
      "state": "Fujian",
      "country": "China"
    },
    {
      "id": 128,
      "name": "Lexy, France",
      "latitude": 49.513401,
      "longitude": 5.730065,
      "city": "Lexy",
      "state": "Grand Est",
      "country": "France"
    },
    {
      "id": 129,
      "name": "Gansevoort, NY",
      "latitude": 43.170639,
      "longitude": -73.718632,
      "city": "Gansevoort",
      "state": "NY",
      "country": "USA"
    },
    {
      "id": 130,
      "name": "Férin, France",
      "latitude": 50.342398,
      "longitude": 3.094083,
      "city": "Férin",
      "state": "Hauts-de-France",
      "country": "France"
    },
    {
      "id": 131,
      "name": "Changzhou, China - Dino Water Town",
      "latitude": 31.825346,
      "longitude": 120.012941,
      "city": "Changzhou",
      "state": "Jiangsu",
      "country": "China"
    },
    {
      "id": 132,
      "name": "Sammamish, WA - Issaquah-Pine Lake Rd SE",
      "latitude": 47.581957,
      "longitude": -122.033533,
      "city": "Sammamish",
      "state": "WA",
      "country": "USA"
    },
    {
      "id": 133,
      "name": "Winchester, VA",
      "latitude": 39.18814,
      "longitude": -78.125788,
      "city": "Winchester",
      "state": "VA",
      "country": "USA"
    },
    {
      "id": 134,
      "name": "Hayward, CA",
      "latitude": 37.644621,
      "longitude": -122.104043,
      "city": "Hayward",
      "state": "CA",
      "country": "USA"
    },
    {
      "id": 135,
      "name": "Albany, NY - Central Ave",
      "latitude": 42.699213,
      "longitude": -73.810411,
      "city": "Albany",
      "state": "NY",
      "country": "USA"
    },
    {
      "id": 136,
      "name": "Epsom, NH",
      "latitude": 43.227409,
      "longitude": -71.35962,
      "city": "Epsom",
      "state": "NH",
      "country": "USA"
    },
    {
      "id": 137,
      "name": "Karrinyup, WA, Australia",
      "latitude": -31.87672,
      "longitude": 115.777016,
      "city": "Karrinyup",
      "state": "WA",
      "country": "Australia"
    },
    {
      "id": 138,
      "name": "Williams, WA, Australia",
      "latitude": -33.024674,
      "longitude": 116.878787,
      "city": "Williams",
      "state": "WA",
      "country": "Australia"
    },
    {
      "id": 139,
      "name": "Uşak, Türkiye - Merkez",
      "latitude": 38.670857,
      "longitude": 29.42427,
      "city": "Uşak Merkez",
      "state": "Uşak",
      "country": "Turkey"
    },
    {
      "id": 140,
      "name": "Arlington, VA",
      "latitude": 38.887481,
      "longitude": -77.092956,
      "city": "Arlington",
      "state": "VA",
      "country": "USA"
    },
    {
      "id": 141,
      "name": "Hopwood Park, UK",
      "latitude": 52.363197,
      "longitude": -1.945572,
      "city": "Birmingham",
      "state": "England",
      "country": "United Kingdom"
    },
    {
      "id": 142,
      "name": "Lifton, UK",
      "latitude": 50.64372,
      "longitude": -4.28466,
      "city": "Lifton",
      "state": "England",
      "country": "United Kingdom"
    },
    {
      "id": 143,
      "name": "Metairie, LA - Power Blvd",
      "latitude": 30.012235,
      "longitude": -90.221538,
      "city": "Metairie",
      "state": "LA",
      "country": "USA"
    },
    {
      "id": 144,
      "name": "San Clemente, CA",
      "latitude": 33.437177,
      "longitude": -117.62712,
      "city": "San Clemente",
      "state": "CA",
      "country": "USA"
    },
    {
      "id": 145,
      "name": "Hopewell Centre, Hong Kong",
      "latitude": 22.274495,
      "longitude": 114.171429,
      "city": "Hong Kong",
      "state": "Hong Kong",
      "country": "China"
    },
    {
      "id": 146,
      "name": "Crestview, FL - Cracker Barrel Dr",
      "latitude": 30.724613,
      "longitude": -86.571885,
      "city": "Crestview",
      "state": "FL",
      "country": "USA"
    },
    {
      "id": 147,
      "name": "Abingdon, VA",
      "latitude": 36.712294,
      "longitude": -81.928695,
      "city": "Abingdon",
      "state": "VA",
      "country": "USA"
    },
    {
      "id": 148,
      "name": "Chengde, China - Jinshanling Anaya",
      "latitude": 40.699089,
      "longitude": 117.435973,
      "city": "Chengde",
      "state": "Hebei",
      "country": "China"
    },
    {
      "id": 149,
      "name": "Zhenjiang, China - Yangzhong Central Shopping Mall",
      "latitude": 32.247471,
      "longitude": 119.823719,
      "city": "Zhenjiang",
      "state": "Jiangsu",
      "country": "China"
    },
    {
      "id": 150,
      "name": "Bolzano, Italy",
      "latitude": 46.486275,
      "longitude": 11.335481,
      "city": "Bozen",
      "state": "Trentino-South Tyrol",
      "country": "Italy"
    },
    {
      "id": 151,
      "name": "Tekirdağ, Türkiye",
      "latitude": 40.988854,
      "longitude": 27.57721,
      "city": "Tekirdağ",
      "state": "Tekirdağ",
      "country": "Turkey"
    },
    {
      "id": 152,
      "name": "Koblenz, Germany - Metternich",
      "latitude": 50.346286,
      "longitude": 7.507312,
      "city": "Koblenz",
      "state": "Rhineland-Palatinate",
      "country": "Germany"
    },
    {
      "id": 153,
      "name": "Mission, TX",
      "latitude": 26.196662,
      "longitude": -98.283998,
      "city": "Mission",
      "state": "TX",
      "country": "USA"
    },
    {
      "id": 154,
      "name": "Hatipkoy Kocaeli, Türkiye",
      "latitude": 40.773886,
      "longitude": 29.873047,
      "city": "İzmit",
      "state": "Kocaeli",
      "country": "Turkey"
    },
    {
      "id": 155,
      "name": "Fort Wayne, IN - Maysville Rd",
      "latitude": 41.134129,
      "longitude": -85.014406,
      "city": "Fort Wayne",
      "state": "IN",
      "country": "USA"
    },
    {
      "id": 156,
      "name": "Sealy, TX",
      "latitude": 29.769035,
      "longitude": -96.047502,
      "city": "Sealy",
      "state": "TX",
      "country": "USA"
    },
    {
      "id": 157,
      "name": "Cornersville, TN",
      "latitude": 35.310615,
      "longitude": -86.879765,
      "city": "Cornersville",
      "state": "TN",
      "country": "USA"
    },
    {
      "id": 158,
      "name": "Dee Why, NSW",
      "latitude": -33.75321,
      "longitude": 151.28736,
      "city": "Dee Why",
      "state": "NSW",
      "country": "Australia"
    },
    {
      "id": 159,
      "name": "Rochester, WA",
      "latitude": 46.804051,
      "longitude": -123.012244,
      "city": "Rochester",
      "state": "WA",
      "country": "USA"
    },
    {
      "id": 160,
      "name": "Shijiazhuang, China - Xinji Market Juran Home",
      "latitude": 37.973413,
      "longitude": 115.246666,
      "city": "Shijiazhuang",
      "state": "Hebei",
      "country": "China"
    },
    {
      "id": 161,
      "name": "Tianjin, China - Meijiang Impression City",
      "latitude": 39.02405,
      "longitude": 117.21914,
      "city": "Tianjin",
      "state": "Tianjin",
      "country": "China"
    },
    {
      "id": 162,
      "name": "Fairfax, VA",
      "latitude": 38.859305,
      "longitude": -77.357542,
      "city": "Fairfax",
      "state": "VA",
      "country": "USA"
    },
    {
      "id": 163,
      "name": "Mexico City South, Mexico",
      "latitude": 19.303941,
      "longitude": -99.187071,
      "city": "Coyoacán",
      "state": "Mexico City",
      "country": "Mexico"
    },
    {
      "id": 164,
      "name": "Gassin, France",
      "latitude": 43.263023,
      "longitude": 6.580442,
      "city": "Gassin",
      "state": "Provence-Alpes-Côte d'Azur",
      "country": "France"
    },
    {
      "id": 165,
      "name": "Marquette, MI",
      "latitude": 46.551944,
      "longitude": -87.470222,
      "city": "Marquette",
      "state": "MI",
      "country": "USA"
    },
    {
      "id": 166,
      "name": "Heze, China - Mudan Wanda Plaza",
      "latitude": 35.230217,
      "longitude": 115.481119,
      "city": "Heze",
      "state": "Shandong",
      "country": "China"
    },
    {
      "id": 167,
      "name": "Coralville, IA",
      "latitude": 41.680372,
      "longitude": -91.591467,
      "city": "Coralville",
      "state": "IA",
      "country": "USA"
    },
    {
      "id": 168,
      "name": "Davenport, IA",
      "latitude": 41.575888,
      "longitude": -90.513526,
      "city": "Davenport",
      "state": "IA",
      "country": "USA"
    },
    {
      "id": 169,
      "name": "Rosemont, IL",
      "latitude": 41.97509,
      "longitude": -87.8665,
      "city": "Rosemont",
      "state": "IL",
      "country": "USA"
    },
    {
      "id": 170,
      "name": "Orem, UT",
      "latitude": 40.272638,
      "longitude": -111.704982,
      "city": "Orem",
      "state": "UT",
      "country": "USA"
    },
    {
      "id": 171,
      "name": "Monticello, NY",
      "latitude": 41.666602,
      "longitude": -74.671513,
      "city": "Monticello",
      "state": "NY",
      "country": "USA"
    },
    {
      "id": 172,
      "name": "Waco, TX",
      "latitude": 31.58224,
      "longitude": -97.10915,
      "city": "Bellmead",
      "state": "TX",
      "country": "USA"
    },
    {
      "id": 173,
      "name": "Butte, MT - Grizzly Trl",
      "latitude": 46.005169,
      "longitude": -112.610743,
      "city": "Butte",
      "state": "MT",
      "country": "USA"
    },
    {
      "id": 174,
      "name": "[EV OTM] Nottingham, UK - Trent Bridge",
      "latitude": 52.94038,
      "longitude": -1.139681,
      "city": "Nottingham",
      "state": "England",
      "country": "United Kingdom"
    },
    {
      "id": 175,
      "name": "Blind Bay, BC",
      "latitude": 50.87165,
      "longitude": -119.384184,
      "city": "Blind Bay",
      "state": "BC",
      "country": "Canada"
    },
    {
      "id": 176,
      "name": "Trier, Germany",
      "latitude": 49.772161,
      "longitude": 6.657573,
      "city": "Trier",
      "state": "Rhineland-Palatinate",
      "country": "Germany"
    },
    {
      "id": 177,
      "name": "Little Falls, MN",
      "latitude": 45.975254,
      "longitude": -94.335543,
      "city": "Little Falls",
      "state": "MN",
      "country": "USA"
    },
    {
      "id": 178,
      "name": "Novato, CA - San Marin Dr",
      "latitude": 38.122295,
      "longitude": -122.604236,
      "city": "Novato",
      "state": "CA",
      "country": "USA"
    },
    {
      "id": 179,
      "name": "Evergreen Park, IL",
      "latitude": 41.725315,
      "longitude": -87.683693,
      "city": "Evergreen Park",
      "state": "IL",
      "country": "USA"
    },
    {
      "id": 180,
      "name": "Pu'er, China - Yuecheng Shiguangli Shopping Park",
      "latitude": 22.782408,
      "longitude": 100.977669,
      "city": "Pu'er",
      "state": "Yunnan",
      "country": "China"
    },
    {
      "id": 181,
      "name": "Rockhampton, QLD",
      "latitude": -23.34277,
      "longitude": 150.52087,
      "city": "Norman Gardens",
      "state": "Qld",
      "country": "Australia"
    },
    {
      "id": 182,
      "name": "Calliope, QLD",
      "latitude": -23.984083,
      "longitude": 151.212456,
      "city": "Calliope",
      "state": "Qld",
      "country": "Australia"
    },
    {
      "id": 183,
      "name": "Charlottesville, VA",
      "latitude": 38.067051,
      "longitude": -78.492702,
      "city": "Charlottesville",
      "state": "VA",
      "country": "USA"
    },
    {
      "id": 184,
      "name": "Orsa, Sweden",
      "latitude": 61.11684,
      "longitude": 14.62767,
      "city": "Orsa",
      "state": "Dalarnas län",
      "country": "Sweden"
    },
    {
      "id": 185,
      "name": "Exmore, VA",
      "latitude": 37.516011,
      "longitude": -75.831544,
      "city": "Exmore",
      "state": "VA",
      "country": "USA"
    },
    {
      "id": 186,
      "name": "Post, TX",
      "latitude": 33.200135,
      "longitude": -101.382603,
      "city": "Post",
      "state": "TX",
      "country": "USA"
    },
    {
      "id": 187,
      "name": "Madison Heights, VA",
      "latitude": 37.466222,
      "longitude": -79.117738,
      "city": "Madison Heights",
      "state": "VA",
      "country": "USA"
    },
    {
      "id": 188,
      "name": "Mechanicsville, VA",
      "latitude": 37.613437,
      "longitude": -77.328344,
      "city": "Mechanicsville",
      "state": "VA",
      "country": "USA"
    },
    {
      "id": 189,
      "name": "Kingston, ON - Princess St",
      "latitude": 44.260108,
      "longitude": -76.583393,
      "city": "Kingston",
      "state": "ON",
      "country": "Canada"
    },
    {
      "id": 190,
      "name": "Pori, Finland",
      "latitude": 61.494717,
      "longitude": 21.797995,
      "city": "Pori",
      "state": "Satakunta",
      "country": "Finland"
    },
    {
      "id": 191,
      "name": "Lincoln, NH",
      "latitude": 44.042781,
      "longitude": -71.667392,
      "city": "Lincoln",
      "state": "NH",
      "country": "USA"
    },
    {
      "id": 192,
      "name": "Toowoomba, QLD",
      "latitude": -27.577891,
      "longitude": 151.946812,
      "city": "South Toowoomba",
      "state": "Qld",
      "country": "Australia"
    },
    {
      "id": 193,
      "name": "North Lakes, QLD",
      "latitude": -27.239432,
      "longitude": 153.013634,
      "city": "North Lakes",
      "state": "Qld",
      "country": "Australia"
    },
    {
      "id": 194,
      "name": "Nanchang, China - Chaoyang Central Park",
      "latitude": 28.64104,
      "longitude": 115.867292,
      "city": "Nanchang",
      "state": "Jiangxi",
      "country": "China"
    },
    {
      "id": 195,
      "name": "Red Deer County, AB - Leva Ave",
      "latitude": 52.208734,
      "longitude": -113.815148,
      "city": "Penhold",
      "state": "AB",
      "country": "Canada"
    },
    {
      "id": 196,
      "name": "Peoria, AZ",
      "latitude": 33.553383,
      "longitude": -112.268598,
      "city": "Peoria",
      "state": "AZ",
      "country": "USA"
    },
    {
      "id": 197,
      "name": "Flagstaff, AZ",
      "latitude": 35.174272,
      "longitude": -111.66328,
      "city": "Flagstaff",
      "state": "AZ",
      "country": "USA"
    },
    {
      "id": 198,
      "name": "Palm Springs, CA",
      "latitude": 33.824931,
      "longitude": -116.548824,
      "city": "Palm Springs",
      "state": "CA",
      "country": "USA"
    },
    {
      "id": 199,
      "name": "Courtenay, BC",
      "latitude": 49.712988,
      "longitude": -124.964044,
      "city": "Courtenay",
      "state": "BC",
      "country": "Canada"
    },
    {
      "id": 200,
      "name": "Austin, TX - W 4th St",
      "latitude": 30.271141,
      "longitude": -97.759052,
      "city": "Austin",
      "state": "TX",
      "country": "USA"
    },
    {
      "id": 201,
      "name": "Varneville-Bretteville, France",
      "latitude": 49.645583,
      "longitude": 1.045842,
      "city": "Varneville-Bretteville",
      "state": "Normandy",
      "country": "France"
    },
    {
      "id": 202,
      "name": "Bridgeville, PA",
      "latitude": 40.342138,
      "longitude": -80.118326,
      "city": "Bridgeville",
      "state": "PA",
      "country": "USA"
    },
    {
      "id": 203,
      "name": "Ningbo, China - Camel Impression Mall",
      "latitude": 29.972506,
      "longitude": 121.577162,
      "city": "Ningbo",
      "state": "Zhejiang",
      "country": "China"
    },
    {
      "id": 204,
      "name": "Nanchang, China - Vanke Times Square Metro Station",
      "latitude": 28.709035,
      "longitude": 115.873327,
      "city": "Nanchang",
      "state": "Jiangxi",
      "country": "China"
    },
    {
      "id": 205,
      "name": "Vienna, VA",
      "latitude": 38.895195,
      "longitude": -77.273938,
      "city": "Vienna",
      "state": "VA",
      "country": "USA"
    },
    {
      "id": 206,
      "name": "Tappahannock, VA",
      "latitude": 37.903836,
      "longitude": -76.865734,
      "city": "Tappahannock",
      "state": "VA",
      "country": "USA"
    },
    {
      "id": 207,
      "name": "Sanya, China - Super Mediterranean Xiyue",
      "latitude": 18.367505,
      "longitude": 109.733776,
      "city": "Sanya",
      "state": "Hainan",
      "country": "China"
    },
    {
      "id": 208,
      "name": "Williamsburg, VA",
      "latitude": 37.266487,
      "longitude": -76.676613,
      "city": "Williamsburg",
      "state": "VA",
      "country": "USA"
    },
    {
      "id": 209,
      "name": "Gaobeidian, China - Shouheng International Hotel",
      "latitude": 39.355187,
      "longitude": 115.909331,
      "city": "Gaobeidian",
      "state": "Hebei",
      "country": "China"
    },
    {
      "id": 210,
      "name": "Stafford, VA",
      "latitude": 38.467411,
      "longitude": -77.412069,
      "city": "Stafford",
      "state": "VA",
      "country": "USA"
    },
    {
      "id": 211,
      "name": "Santa Clara, CA",
      "latitude": 37.394816,
      "longitude": -121.945157,
      "city": "Santa Clara",
      "state": "CA",
      "country": "USA"
    },
    {
      "id": 212,
      "name": "Suihua, China - Wanda Plaza",
      "latitude": 46.650084,
      "longitude": 126.970317,
      "city": "Suihua",
      "state": "Heilongjiang",
      "country": "China"
    },
    {
      "id": 213,
      "name": "Kappel-Grafenhausen, Germany",
      "latitude": 48.281347,
      "longitude": 7.77755,
      "city": "Kappel-Grafenhausen",
      "state": "Baden-Württemberg",
      "country": "Germany"
    },
    {
      "id": 214,
      "name": "Stuarts Draft, VA",
      "latitude": 38.038621,
      "longitude": -79.026271,
      "city": "Stuarts Draft",
      "state": "VA",
      "country": "USA"
    },
    {
      "id": 215,
      "name": "Achern, Germany",
      "latitude": 48.641317,
      "longitude": 8.037744,
      "city": "Achern",
      "state": "Baden-Württemberg",
      "country": "Germany"
    },
    {
      "id": 216,
      "name": "Vernon, CA",
      "latitude": 34.008048,
      "longitude": -118.220145,
      "city": "Vernon",
      "state": "CA",
      "country": "USA"
    },
    {
      "id": 217,
      "name": "Hengersberg, Germany",
      "latitude": 48.765472,
      "longitude": 13.046667,
      "city": "Hengersberg",
      "state": "Bavaria",
      "country": "Germany"
    },
    {
      "id": 218,
      "name": "Nanjing, China - Yuhua Wuyue Plaza",
      "latitude": 31.91877,
      "longitude": 118.660605,
      "city": "Nanjing",
      "state": "Jiangsu",
      "country": "China"
    },
    {
      "id": 219,
      "name": "Bad Rappenau, Germany",
      "latitude": 49.211936,
      "longitude": 9.077322,
      "city": "Bad Rappenau",
      "state": "Baden-Württemberg",
      "country": "Germany"
    },
    {
      "id": 220,
      "name": "Aichstetten, Germany",
      "latitude": 47.88036,
      "longitude": 10.040488,
      "city": "Aichstetten",
      "state": "Baden-Württemberg",
      "country": "Germany"
    },
    {
      "id": 221,
      "name": "Virginia Beach, VA",
      "latitude": 36.840677,
      "longitude": -76.055615,
      "city": "Virginia Beach",
      "state": "VA",
      "country": "USA"
    },
    {
      "id": 222,
      "name": "Ronneby, Sweden",
      "latitude": 56.231352,
      "longitude": 15.257779,
      "city": "Ronneby",
      "state": "Blekinge län",
      "country": "Sweden"
    },
    {
      "id": 223,
      "name": "Cholet, France",
      "latitude": 47.079223,
      "longitude": -0.834343,
      "city": "Cholet",
      "state": "Pays de la Loire",
      "country": "France"
    },
    {
      "id": 224,
      "name": "Kuttawa, KY - US-62",
      "latitude": 37.071914,
      "longitude": -88.124178,
      "city": "Kuttawa",
      "state": "KY",
      "country": "USA"
    },
    {
      "id": 225,
      "name": "Jettingen, Germany",
      "latitude": 48.411068,
      "longitude": 10.440378,
      "city": "Jettingen",
      "state": "Bavaria",
      "country": "Germany"
    },
    {
      "id": 226,
      "name": "Hirschberg, Germany",
      "latitude": 49.507337,
      "longitude": 8.637361,
      "city": "Hirschberg",
      "state": "Baden-Württemberg",
      "country": "Germany"
    },
    {
      "id": 227,
      "name": "Oberhonnefeld, Germany",
      "latitude": 50.56268,
      "longitude": 7.525285,
      "city": "Oberhonnefeld",
      "state": "Rhineland-Palatinate",
      "country": "Germany"
    },
    {
      "id": 228,
      "name": "Changsha, China - Xiaoxiang Huatian Hotel",
      "latitude": 28.204445,
      "longitude": 112.992696,
      "city": "Changsha",
      "state": "Hunan",
      "country": "China"
    },
    {
      "id": 229,
      "name": "Burlington, WA",
      "latitude": 48.509772,
      "longitude": -122.338625,
      "city": "Burlington",
      "state": "WA",
      "country": "USA"
    },
    {
      "id": 230,
      "name": "Taizhou, China - Hampton by Hilton Hailing",
      "latitude": 32.49797,
      "longitude": 119.902233,
      "city": "Taizhou",
      "state": "Jiangsu",
      "country": "China"
    },
    {
      "id": 231,
      "name": "Fossvogur, Iceland",
      "latitude": 64.117613,
      "longitude": -21.899654,
      "city": "Reykjavik",
      "state": "Capital Region",
      "country": "Iceland"
    },
    {
      "id": 232,
      "name": "Shanghai, China - Maqiao Wanda Plaza",
      "latitude": 31.029188,
      "longitude": 121.379073,
      "city": "Shanghai",
      "state": "Shanghai",
      "country": "China"
    },
    {
      "id": 233,
      "name": "Zhengzhou, China - High-tech Zone Wanda Plaza",
      "latitude": 34.814742,
      "longitude": 113.589421,
      "city": "Zhengzhou",
      "state": "Henan",
      "country": "China"
    },
    {
      "id": 234,
      "name": "Münchberg-Nord, Germany",
      "latitude": 50.202872,
      "longitude": 11.776552,
      "city": "Münchberg",
      "state": "Bavaria",
      "country": "Germany"
    },
    {
      "id": 235,
      "name": "Sindelsdorf, Germany",
      "latitude": 47.72835,
      "longitude": 11.362099,
      "city": "Sindelsdorf",
      "state": "Bavaria",
      "country": "Germany"
    },
    {
      "id": 236,
      "name": "Liyang, China - Lithium Enjoyment Plaza",
      "latitude": 31.456985,
      "longitude": 119.436832,
      "city": "Liyang",
      "state": "Jiangsu",
      "country": "China"
    },
    {
      "id": 237,
      "name": "Mühldorf, Germany",
      "latitude": 48.272557,
      "longitude": 12.549892,
      "city": "Erharting",
      "state": "Bavaria",
      "country": "Germany"
    },
    {
      "id": 238,
      "name": "Baoding, China - Maoye Center",
      "latitude": 38.879153,
      "longitude": 115.47646,
      "city": "Baoding",
      "state": "Hebei",
      "country": "China"
    },
    {
      "id": 239,
      "name": "Johor Bahru, Malaysia - Toppen Shopping Centre",
      "latitude": 1.551487,
      "longitude": 103.79862,
      "city": "Johor",
      "state": "Johor Bahru",
      "country": "Malaysia"
    },
    {
      "id": 240,
      "name": "Tongliao, China - Wanda Plaza",
      "latitude": 43.637557,
      "longitude": 122.287308,
      "city": "Tongliao",
      "state": "Inner Mongolia",
      "country": "China"
    },
    {
      "id": 241,
      "name": "Schweitenkirchen, Germany",
      "latitude": 48.510724,
      "longitude": 11.58227,
      "city": "Schweitenkirchen",
      "state": "Bavaria",
      "country": "Germany"
    },
    {
      "id": 242,
      "name": "Lana'i City, HI",
      "latitude": 20.821133,
      "longitude": -156.920132,
      "city": "Lana'i City",
      "state": "HI",
      "country": "USA"
    },
    {
      "id": 243,
      "name": "Ya'an, China - Wanda Plaza",
      "latitude": 30.013019,
      "longitude": 103.043855,
      "city": "Ya'an",
      "state": "Sichuan",
      "country": "China"
    },
    {
      "id": 244,
      "name": "Lohne, Germany",
      "latitude": 52.657647,
      "longitude": 8.16906,
      "city": "Lohne",
      "state": "Lower Saxony",
      "country": "Germany"
    },
    {
      "id": 245,
      "name": "Suffolk, VA",
      "latitude": 36.717487,
      "longitude": -76.65664,
      "city": "Suffolk",
      "state": "VA",
      "country": "USA"
    },
    {
      "id": 246,
      "name": "Spring Valley, NY",
      "latitude": 41.105272,
      "longitude": -74.029387,
      "city": "Spring Valley",
      "state": "NY",
      "country": "USA"
    },
    {
      "id": 247,
      "name": "Guilin, China - Wuyue Plaza",
      "latitude": 25.254244,
      "longitude": 110.17463,
      "city": "Guilin",
      "state": "Guangxi",
      "country": "China"
    },
    {
      "id": 248,
      "name": "Taizhou, China - Jiangyan Times Commercial Plaza",
      "latitude": 32.5049,
      "longitude": 120.144121,
      "city": "Jinhua",
      "state": "Jiangsu",
      "country": "China"
    },
    {
      "id": 249,
      "name": "Vaux-sur-Mer, France",
      "latitude": 45.647057,
      "longitude": -1.048877,
      "city": "Vaux-sur-Mer",
      "state": "Nouvelle-Aquitaine",
      "country": "France"
    },
    {
      "id": 250,
      "name": "Bellevue, WA",
      "latitude": 47.610717,
      "longitude": -122.202226,
      "city": "Bellevue",
      "state": "WA",
      "country": "USA"
    },
    {
      "id": 251,
      "name": "Glen Allen, VA",
      "latitude": 37.669832,
      "longitude": -77.461419,
      "city": "Glen Allen",
      "state": "VA",
      "country": "USA"
    },
    {
      "id": 252,
      "name": "Nanjing, China - Jiangbei New Area Research and Innovation Park Talent Apartment",
      "latitude": 32.0425,
      "longitude": 118.652701,
      "city": "Nanjing",
      "state": "Jiangsu",
      "country": "China"
    },
    {
      "id": 253,
      "name": "Lexington, VA - E Nelson St",
      "latitude": 37.778564,
      "longitude": -79.434062,
      "city": "Lexington",
      "state": "VA",
      "country": "USA"
    },
    {
      "id": 254,
      "name": "Arlington, WA",
      "latitude": 48.21237,
      "longitude": -122.183551,
      "city": "Arlington",
      "state": "WA",
      "country": "USA"
    },
    {
      "id": 255,
      "name": "Baoding, China - Future Stone Wanda Plaza",
      "latitude": 38.884948,
      "longitude": 115.564815,
      "city": "Baoding",
      "state": "Hebei",
      "country": "China"
    },
    {
      "id": 256,
      "name": "Laixi, China - Wanda Plaza",
      "latitude": 36.88065,
      "longitude": 120.502934,
      "city": "Laixi",
      "state": "Shandong",
      "country": "China"
    },
    {
      "id": 257,
      "name": "Yancheng, China - Yandu Wuyue Plaza",
      "latitude": 33.312385,
      "longitude": 120.152436,
      "city": "Yancheng",
      "state": "Jiangsu",
      "country": "China"
    },
    {
      "id": 258,
      "name": "Shenzhen - Zhongzhou Holding Center. China",
      "latitude": 22.517564,
      "longitude": 113.933144,
      "city": "Shenzhen",
      "state": "Guangdong",
      "country": "China"
    },
    {
      "id": 259,
      "name": "Devonport, TAS",
      "latitude": -41.18,
      "longitude": 146.367384,
      "city": "East Devonport",
      "state": "Tas",
      "country": "Australia"
    },
    {
      "id": 260,
      "name": "Marrakech, Morocco",
      "latitude": 31.622081,
      "longitude": -8.001983,
      "city": "Marrakesh",
      "state": "Marrakesh-Safi",
      "country": "Morocco"
    },
    {
      "id": 261,
      "name": "Stony Creek, VA",
      "latitude": 36.977987,
      "longitude": -77.394985,
      "city": "Stony Creek",
      "state": "VA",
      "country": "USA"
    },
    {
      "id": 262,
      "name": "Baoding, China - Jiade Wanda Plaza",
      "latitude": 38.852249,
      "longitude": 115.517993,
      "city": "Baoding",
      "state": "Hebei",
      "country": "China"
    },
    {
      "id": 263,
      "name": "East Peoria, IL",
      "latitude": 40.680317,
      "longitude": -89.588669,
      "city": "East Peoria",
      "state": "IL",
      "country": "USA"
    },
    {
      "id": 264,
      "name": "Agadir, Morocco",
      "latitude": 30.391915,
      "longitude": -9.597088,
      "city": "Agadir",
      "state": "Souss-Massa",
      "country": "Morocco"
    },
    {
      "id": 265,
      "name": "Shenzhen, China - Changtian Science and Technology Park",
      "latitude": 22.675072,
      "longitude": 114.031663,
      "city": "Shenzhen",
      "state": "Guangdong",
      "country": "China"
    },
    {
      "id": 266,
      "name": "Belgrade, MT",
      "latitude": 45.773167,
      "longitude": -111.19886,
      "city": "Belgrade",
      "state": "MT",
      "country": "USA"
    },
    {
      "id": 267,
      "name": "Spiceland, IN",
      "latitude": 39.848001,
      "longitude": -85.419441,
      "city": "Spiceland",
      "state": "IN",
      "country": "USA"
    },
    {
      "id": 268,
      "name": "Bettendorf, IA",
      "latitude": 41.591965,
      "longitude": -90.462753,
      "city": "Bettendorf",
      "state": "IA",
      "country": "USA"
    },
    {
      "id": 269,
      "name": "Jackson, TN",
      "latitude": 35.660349,
      "longitude": -88.855771,
      "city": "Jackson",
      "state": "TN",
      "country": "USA"
    },
    {
      "id": 270,
      "name": "Lancaster, PA",
      "latitude": 40.052622,
      "longitude": -76.254776,
      "city": "Lancaster",
      "state": "PA",
      "country": "USA"
    },
    {
      "id": 271,
      "name": "Yichun, China - Xinqian Hotel",
      "latitude": 47.717175,
      "longitude": 128.869752,
      "city": "Yichun",
      "state": "Heilongjiang",
      "country": "China"
    },
    {
      "id": 272,
      "name": "Dunn, NC",
      "latitude": 35.296335,
      "longitude": -78.598812,
      "city": "Dunn",
      "state": "NC",
      "country": "USA"
    },
    {
      "id": 273,
      "name": "Lowell, AR",
      "latitude": 36.255329,
      "longitude": -94.152637,
      "city": "Lowell",
      "state": "AR",
      "country": "USA"
    },
    {
      "id": 274,
      "name": "Miramichi, NB",
      "latitude": 47.03219,
      "longitude": -65.488607,
      "city": "Miramichi",
      "state": "NB",
      "country": "Canada"
    },
    {
      "id": 275,
      "name": "Hangzhou, China - Minghe Garden Yinhu Park",
      "latitude": 30.143631,
      "longitude": 119.984204,
      "city": "Hangzhou",
      "state": "Zhejiang",
      "country": "China"
    },
    {
      "id": 276,
      "name": "Pearland, TX",
      "latitude": 29.580958,
      "longitude": -95.391853,
      "city": "Pearland",
      "state": "TX",
      "country": "USA"
    },
    {
      "id": 277,
      "name": "Lakewood, CO",
      "latitude": 39.733697,
      "longitude": -105.154154,
      "city": "Lakewood",
      "state": "CO",
      "country": "USA"
    },
    {
      "id": 278,
      "name": "Lantana, FL",
      "latitude": 26.587844,
      "longitude": -80.064215,
      "city": "Lantana",
      "state": "FL",
      "country": "USA"
    },
    {
      "id": 279,
      "name": "Latham, NY - Wade Rd Extension",
      "latitude": 42.758788,
      "longitude": -73.768441,
      "city": "Latham",
      "state": "NY",
      "country": "USA"
    },
    {
      "id": 280,
      "name": "Yangzhou, China - Hanjiang Changjian Plaza",
      "latitude": 32.390832,
      "longitude": 119.375295,
      "city": "Yangzhou",
      "state": "Jiangsu",
      "country": "China"
    },
    {
      "id": 281,
      "name": "Woburn, MA",
      "latitude": 42.518385,
      "longitude": -71.137254,
      "city": "Woburn",
      "state": "MA",
      "country": "USA"
    },
    {
      "id": 282,
      "name": "Regina, SK",
      "latitude": 50.442508,
      "longitude": -104.531998,
      "city": "Regina",
      "state": "SK",
      "country": "Canada"
    },
    {
      "id": 283,
      "name": "Lacey, WA",
      "latitude": 47.042438,
      "longitude": -122.834327,
      "city": "Lacey",
      "state": "WA",
      "country": "USA"
    },
    {
      "id": 284,
      "name": "Shenzhen, China - Shahe Ecological Sports Park",
      "latitude": 22.542863,
      "longitude": 113.970332,
      "city": "Shenzhen",
      "state": "Guangdong",
      "country": "China"
    },
    {
      "id": 285,
      "name": "Shenzhen, China - Bao'an Sino-German (European) Industrial Demonstration Park",
      "latitude": 22.612866,
      "longitude": 113.863063,
      "city": "Shenzhen",
      "state": "Guangdong",
      "country": "China"
    },
    {
      "id": 286,
      "name": "Great Barrington, MA",
      "latitude": 42.180663,
      "longitude": -73.364632,
      "city": "Great Barrington",
      "state": "MA",
      "country": "USA"
    },
    {
      "id": 287,
      "name": "Princeton, BC",
      "latitude": 49.457882,
      "longitude": -120.506224,
      "city": "Princeton",
      "state": "BC",
      "country": "Canada"
    },
    {
      "id": 288,
      "name": "Hefei, China - Jinyu Tonganhui",
      "latitude": 31.841053,
      "longitude": 117.318636,
      "city": "Hefei",
      "state": "Anhui",
      "country": "China"
    },
    {
      "id": 289,
      "name": "Revere, MA",
      "latitude": 42.398547,
      "longitude": -71.00021,
      "city": "Revere",
      "state": "MA",
      "country": "USA"
    },
    {
      "id": 290,
      "name": "Draper, UT",
      "latitude": 40.526531,
      "longitude": -111.88591,
      "city": "Draper",
      "state": "UT",
      "country": "USA"
    },
    {
      "id": 291,
      "name": "Cache Creek, BC",
      "latitude": 50.810979,
      "longitude": -121.324945,
      "city": "Cache Creek",
      "state": "BC",
      "country": "Canada"
    },
    {
      "id": 292,
      "name": "Ulanhot, China - Wanda Plaza",
      "latitude": 46.094676,
      "longitude": 122.034589,
      "city": "Ulanhot",
      "state": "Inner Mongolia",
      "country": "China"
    },
    {
      "id": 293,
      "name": "Escanaba, MI",
      "latitude": 45.750542,
      "longitude": -87.085129,
      "city": "Escanaba",
      "state": "MI",
      "country": "USA"
    },
    {
      "id": 294,
      "name": "Oneonta, NY",
      "latitude": 42.447575,
      "longitude": -75.048622,
      "city": "Oneonta",
      "state": "NY",
      "country": "USA"
    },
    {
      "id": 295,
      "name": "Urumqi, China - Rongsheng Building",
      "latitude": 43.849602,
      "longitude": 87.54055,
      "city": "Urumqi",
      "state": "Xinjiang",
      "country": "China"
    },
    {
      "id": 296,
      "name": "Fargo, ND",
      "latitude": 46.843601,
      "longitude": -96.882492,
      "city": "Fargo",
      "state": "ND",
      "country": "USA"
    },
    {
      "id": 297,
      "name": "Santa Monica, CA",
      "latitude": 34.024585,
      "longitude": -118.485771,
      "city": "Santa Monica",
      "state": "CA",
      "country": "USA"
    },
    {
      "id": 298,
      "name": "Prawda, MB",
      "latitude": 49.649386,
      "longitude": -95.79209,
      "city": "Prawda",
      "state": "MB",
      "country": "Canada"
    },
    {
      "id": 299,
      "name": "Brandon, MB",
      "latitude": 49.868034,
      "longitude": -99.960652,
      "city": "Brandon",
      "state": "MB",
      "country": "Canada"
    },
    {
      "id": 300,
      "name": "Beaumont, CA",
      "latitude": 33.922692,
      "longitude": -116.951989,
      "city": "Beaumont",
      "state": "CA",
      "country": "USA"
    },
    {
      "id": 301,
      "name": "Piscataway, NJ",
      "latitude": 40.539842,
      "longitude": -74.501967,
      "city": "Piscataway",
      "state": "NJ",
      "country": "USA"
    },
    {
      "id": 302,
      "name": "Fresno, CA - North Blackstone Ave",
      "latitude": 36.850405,
      "longitude": -119.791265,
      "city": "Fresno",
      "state": "CA",
      "country": "USA"
    },
    {
      "id": 303,
      "name": "Racine, WI",
      "latitude": 42.720128,
      "longitude": -87.847994,
      "city": "Racine",
      "state": "WI",
      "country": "USA"
    },
    {
      "id": 304,
      "name": "Xi'an, China - MixC",
      "latitude": 34.201245,
      "longitude": 108.956412,
      "city": "Xi'an",
      "state": "Shaanxi",
      "country": "China"
    },
    {
      "id": 305,
      "name": "Bazhong, China - Economic Development Zone Wanda Plaza",
      "latitude": 31.85003,
      "longitude": 106.786667,
      "city": "Bazhong",
      "state": "Sichuan",
      "country": "China"
    },
    {
      "id": 306,
      "name": "Marianna, FL",
      "latitude": 30.716016,
      "longitude": -85.184269,
      "city": "Marianna",
      "state": "FL",
      "country": "USA"
    },
    {
      "id": 307,
      "name": "Xiamen, China - Crowne Plaza Xiamen Jimei Seaview Hotel",
      "latitude": 24.559341,
      "longitude": 118.053469,
      "city": "Xiamen",
      "state": "Fujian",
      "country": "China"
    },
    {
      "id": 308,
      "name": "Greenbelt, MD",
      "latitude": 38.997117,
      "longitude": -76.892224,
      "city": "Greenbelt",
      "state": "MD",
      "country": "USA"
    },
    {
      "id": 309,
      "name": "Ulanqab, China - Wanda Plaza",
      "latitude": 41.004911,
      "longitude": 113.162204,
      "city": "Ulanqab",
      "state": "Inner Mongolia",
      "country": "China"
    },
    {
      "id": 310,
      "name": "Taizhou, China - DoubleTree by Hilton Taizhou Shenxianju Hotel",
      "latitude": 28.742136,
      "longitude": 120.620907,
      "city": "Taizhou",
      "state": "Zhejiang",
      "country": "China"
    },
    {
      "id": 311,
      "name": "Lu'an, China - Hilton Garden Inn",
      "latitude": 31.75461,
      "longitude": 116.548362,
      "city": "Lu'an",
      "state": "Anhui",
      "country": "China"
    },
    {
      "id": 312,
      "name": "Normal, IL",
      "latitude": 40.508497,
      "longitude": -88.985575,
      "city": "Normal",
      "state": "IL",
      "country": "USA"
    },
    {
      "id": 313,
      "name": "Oceanside, CA - Vista Way",
      "latitude": 33.182005,
      "longitude": -117.342686,
      "city": "Oceanside",
      "state": "CA",
      "country": "USA"
    },
    {
      "id": 314,
      "name": "Kunming, China - Beichen Tesla Center",
      "latitude": 25.085035,
      "longitude": 102.735826,
      "city": "Kunming",
      "state": "Yunnan",
      "country": "China"
    },
    {
      "id": 315,
      "name": "Qingdao, China - Yinchuan West Road Tesla Center",
      "latitude": 36.085983,
      "longitude": 120.412308,
      "city": "Qingdao",
      "state": "Shandong",
      "country": "China"
    },
    {
      "id": 316,
      "name": "Ontario, OR",
      "latitude": 44.025597,
      "longitude": -116.942114,
      "city": "Ontario",
      "state": "OR",
      "country": "USA"
    },
    {
      "id": 317,
      "name": "Psathopyrgos, Greece - North",
      "latitude": 38.325462,
      "longitude": 21.868369,
      "city": "Psathopirgos",
      "state": "Western Greece",
      "country": "Greece"
    },
    {
      "id": 318,
      "name": "Parma, OH",
      "latitude": 41.360848,
      "longitude": -81.686812,
      "city": "Parma",
      "state": "OH",
      "country": "USA"
    },
    {
      "id": 319,
      "name": "Olbia, Italy",
      "latitude": 40.906902,
      "longitude": 9.515853,
      "city": "Olbia",
      "state": "Sardinia",
      "country": "Italy"
    },
    {
      "id": 320,
      "name": "Karasjok, Norway",
      "latitude": 69.47193,
      "longitude": 25.509494,
      "city": "Karasjok",
      "state": "Finnmark",
      "country": "Norway"
    },
    {
      "id": 321,
      "name": "Kraków, Poland",
      "latitude": 50.028017,
      "longitude": 19.950902,
      "city": "Kraków",
      "state": "Lesser Poland",
      "country": "Poland"
    },
    {
      "id": 322,
      "name": "Psathopyrgos, Greece - South",
      "latitude": 38.324403,
      "longitude": 21.869205,
      "city": "Psathopyrgos",
      "state": "Western Greece",
      "country": "Greece"
    },
    {
      "id": 323,
      "name": "Lyngdal Handelspark, Norway",
      "latitude": 58.155615,
      "longitude": 7.10279,
      "city": "Lyngdal",
      "state": "Agder",
      "country": "Norway"
    },
    {
      "id": 324,
      "name": "Longnan, China - Mingyu Heuer Hotel",
      "latitude": 33.365729,
      "longitude": 104.952315,
      "city": "Longnan",
      "state": "Gansu",
      "country": "China"
    },
    {
      "id": 325,
      "name": "Zusmarshausen, Germany",
      "latitude": 48.407779,
      "longitude": 10.599473,
      "city": "Zusmarshausen",
      "state": "Bavaria",
      "country": "Germany"
    },
    {
      "id": 326,
      "name": "Rezekne, Latvia",
      "latitude": 56.514664,
      "longitude": 27.350934,
      "city": "Rēzekne",
      "state": "Latgale",
      "country": "Latvia"
    },
    {
      "id": 327,
      "name": "Mornington, VIC",
      "latitude": -38.234339,
      "longitude": 145.050999,
      "city": "Mornington",
      "state": "Vic",
      "country": "Australia"
    },
    {
      "id": 328,
      "name": "Yichun, China - Jiuxin Mountain Delicacies Resort",
      "latitude": 48.465942,
      "longitude": 129.556326,
      "city": "Yichun",
      "state": "Heilongjiang",
      "country": "China"
    },
    {
      "id": 329,
      "name": "Shenyang, China - Shenyang Grain Depot Cultural and Creative Industrial Park",
      "latitude": 41.715916,
      "longitude": 123.438111,
      "city": "Shenyang",
      "state": "Liaoning",
      "country": "China"
    },
    {
      "id": 330,
      "name": "Ebersdorf bei Coburg, Germany",
      "latitude": 50.223525,
      "longitude": 11.052558,
      "city": "Ebersdorf bei Coburg",
      "state": "Bavaria",
      "country": "Germany"
    },
    {
      "id": 331,
      "name": "Aberdeen (SC), UK",
      "latitude": 57.110252,
      "longitude": -2.092611,
      "city": "Aberdeen",
      "state": "Scotland",
      "country": "United Kingdom"
    },
    {
      "id": 332,
      "name": "Qiqihar, China - Hemei International Hotel",
      "latitude": 47.34199,
      "longitude": 123.969791,
      "city": "Qiqihar",
      "state": "Heilongjiang",
      "country": "China"
    },
    {
      "id": 333,
      "name": "Zhangjiajie, China - Huatian Hotel",
      "latitude": 29.120402,
      "longitude": 110.487334,
      "city": "Zhangjiajie",
      "state": "Hunan",
      "country": "China"
    },
    {
      "id": 334,
      "name": "Guangzhou, China - Wanda Plaza (Guangzhou Nangang)",
      "latitude": 23.103913,
      "longitude": 113.556884,
      "city": "Guangzhou",
      "state": "Guangdong",
      "country": "China"
    },
    {
      "id": 335,
      "name": "Chengdu, China - Qingcheng Mountain Huajiantang",
      "latitude": 30.893737,
      "longitude": 103.589827,
      "city": "Chengdu",
      "state": "Sichuan",
      "country": "China"
    },
    {
      "id": 336,
      "name": "Waterloo, IA",
      "latitude": 42.459333,
      "longitude": -92.328806,
      "city": "Waterloo",
      "state": "IA",
      "country": "USA"
    },
    {
      "id": 337,
      "name": "Bendigo, VIC",
      "latitude": -36.774586,
      "longitude": 144.306418,
      "city": "Kennington",
      "state": "Vic",
      "country": "Australia"
    },
    {
      "id": 338,
      "name": "Xinduqiao, China - Heiqing Barley Manor",
      "latitude": 30.025033,
      "longitude": 101.536743,
      "city": "Xinduqiao",
      "state": "Sichuan",
      "country": "China"
    },
    {
      "id": 339,
      "name": "Ensenada, Mexico",
      "latitude": 31.866293,
      "longitude": -116.662168,
      "city": "Ensenada",
      "state": "Baja California",
      "country": "Mexico"
    },
    {
      "id": 340,
      "name": "Weihai, China - Weigao Plaza",
      "latitude": 37.503356,
      "longitude": 122.117929,
      "city": "Weihai",
      "state": "Shandong",
      "country": "China"
    },
    {
      "id": 341,
      "name": "Norfolk, VA",
      "latitude": 36.860525,
      "longitude": -76.207467,
      "city": "Norfolk",
      "state": "VA",
      "country": "USA"
    },
    {
      "id": 342,
      "name": "Grinnell, IA",
      "latitude": 41.700046,
      "longitude": -92.726636,
      "city": "Grinnell",
      "state": "IA",
      "country": "USA"
    },
    {
      "id": 343,
      "name": "Denkendorf, Germany",
      "latitude": 48.706997,
      "longitude": 9.306412,
      "city": "Denkendorf",
      "state": "Baden-Württemberg",
      "country": "Germany"
    },
    {
      "id": 344,
      "name": "Leshan, China - Vienna International Hotel",
      "latitude": 29.592913,
      "longitude": 103.739998,
      "city": "Leshan",
      "state": "Sichuan",
      "country": "China"
    },
    {
      "id": 345,
      "name": "Dongfang, China - Oriental Aoyue Licheng Hotel",
      "latitude": 19.1071,
      "longitude": 108.683,
      "city": "Dongfang",
      "state": "Hainan",
      "country": "China"
    },
    {
      "id": 346,
      "name": "Terrace Bay, ON",
      "latitude": 48.783012,
      "longitude": -87.099954,
      "city": "Terrace Bay",
      "state": "ON",
      "country": "Canada"
    },
    {
      "id": 347,
      "name": "Chilpancingo de los Bravo, Mexico",
      "latitude": 17.51465,
      "longitude": -99.482779,
      "city": "Chilpancingo de los Bravo",
      "state": "Guerrero",
      "country": "Mexico"
    },
    {
      "id": 348,
      "name": "Sylva, NC",
      "latitude": 35.373124,
      "longitude": -83.210715,
      "city": "Sylva",
      "state": "NC",
      "country": "USA"
    },
    {
      "id": 349,
      "name": "Nipigon, ON",
      "latitude": 49.017631,
      "longitude": -88.307529,
      "city": "Nipigon",
      "state": "ON",
      "country": "Canada"
    },
    {
      "id": 350,
      "name": "Ignace, ON",
      "latitude": 49.416281,
      "longitude": -91.660236,
      "city": "Ignace",
      "state": "ON",
      "country": "Canada"
    },
    {
      "id": 351,
      "name": "Carteret, NJ",
      "latitude": 40.588548,
      "longitude": -74.227019,
      "city": "Carteret",
      "state": "NJ",
      "country": "USA"
    },
    {
      "id": 352,
      "name": "Yangzhou, China - Colorful World Life Plaza",
      "latitude": 32.38749,
      "longitude": 119.377676,
      "city": "Yangzhou",
      "state": "Jiangsu",
      "country": "China"
    },
    {
      "id": 353,
      "name": "Nanjing, China -  Nanjing Himalayas Holiday Inn",
      "latitude": 31.971589,
      "longitude": 118.811515,
      "city": "Nanjing",
      "state": "Jiangsu",
      "country": "China"
    },
    {
      "id": 354,
      "name": "Haidong, China - Fairfield by Marriott",
      "latitude": 36.478221,
      "longitude": 102.413584,
      "city": "Xining",
      "state": "Qinghai",
      "country": "China"
    },
    {
      "id": 355,
      "name": "Suqian, China - Suyu Wanda Plaza",
      "latitude": 33.947236,
      "longitude": 118.326719,
      "city": "Suqian",
      "state": "Jiangsu",
      "country": "China"
    },
    {
      "id": 356,
      "name": "Dongguan, China - Guancheng Yingfeng Home Plaza",
      "latitude": 23.043919,
      "longitude": 113.782555,
      "city": "Dongguan",
      "state": "Guangdong",
      "country": "China"
    },
    {
      "id": 357,
      "name": "Portsmouth, VA",
      "latitude": 36.837402,
      "longitude": -76.306478,
      "city": "Portsmouth",
      "state": "VA",
      "country": "USA"
    },
    {
      "id": 358,
      "name": "Carpiquet, France",
      "latitude": 49.194355,
      "longitude": -0.453806,
      "city": "Carpiquet",
      "state": "Normandy",
      "country": "France"
    },
    {
      "id": 359,
      "name": "Nantong, China - Beiyi Jiujiu Plaza",
      "latitude": 32.051644,
      "longitude": 120.883018,
      "city": "Nantong",
      "state": "Jiangsu",
      "country": "China"
    },
    {
      "id": 360,
      "name": "Falkenberg, Sweden",
      "latitude": 56.931798,
      "longitude": 12.518836,
      "city": "Falkenberg",
      "state": "Hallands län",
      "country": "Sweden"
    },
    {
      "id": 361,
      "name": "Chestertown, NY",
      "latitude": 43.665802,
      "longitude": -73.784266,
      "city": "Chestertown",
      "state": "NY",
      "country": "USA"
    },
    {
      "id": 362,
      "name": "Bryce Canyon City, UT",
      "latitude": 37.672618,
      "longitude": -112.157001,
      "city": "Bryce Canyon City",
      "state": "UT",
      "country": "USA"
    },
    {
      "id": 363,
      "name": "Saint-Raphaël, France",
      "latitude": 43.435165,
      "longitude": 6.79301,
      "city": "Saint-Raphaël",
      "state": "Provence-Alpes-Côte d'Azur",
      "country": "France"
    },
    {
      "id": 364,
      "name": "Tangshan, China - Fengrun Wanda Plaza",
      "latitude": 39.824487,
      "longitude": 118.12348,
      "city": "Tangshan",
      "state": "Hebei",
      "country": "China"
    },
    {
      "id": 365,
      "name": "Pismo Beach, CA",
      "latitude": 35.136408,
      "longitude": -120.628662,
      "city": "Pismo Beach",
      "state": "CA",
      "country": "USA"
    },
    {
      "id": 366,
      "name": "North Brunswick Township, NJ",
      "latitude": 40.459873,
      "longitude": -74.455582,
      "city": "North Brunswick",
      "state": "NJ",
      "country": "USA"
    },
    {
      "id": 367,
      "name": "Centennial, CO",
      "latitude": 39.567218,
      "longitude": -104.877928,
      "city": "Englewood",
      "state": "CO",
      "country": "USA"
    },
    {
      "id": 368,
      "name": "Yixing, China - Rongda Tesla Center",
      "latitude": 31.382794,
      "longitude": 119.78456,
      "city": "Wuxi",
      "state": "Jiangsu",
      "country": "China"
    },
    {
      "id": 369,
      "name": "Burlington, NC - Garden Rd",
      "latitude": 36.070093,
      "longitude": -79.499444,
      "city": "Burlington",
      "state": "NC",
      "country": "USA"
    },
    {
      "id": 370,
      "name": "Barsbüttel, Germany",
      "latitude": 53.578254,
      "longitude": 10.193245,
      "city": "Barsbüttel",
      "state": "Schleswig-Holstein",
      "country": "Germany"
    },
    {
      "id": 371,
      "name": "Gin Gin, QLD",
      "latitude": -24.9896,
      "longitude": 151.95332,
      "city": "Gin Gin",
      "state": "Qld",
      "country": "Australia"
    },
    {
      "id": 372,
      "name": "Drobeta Turnu Severin, Romania",
      "latitude": 44.638068,
      "longitude": 22.633986,
      "city": "Drobeta-Turnu Severin",
      "state": "Mehedinți",
      "country": "Romania"
    },
    {
      "id": 373,
      "name": "Halethorpe, MD",
      "latitude": 39.246301,
      "longitude": -76.673518,
      "city": "Halethorpe",
      "state": "MD",
      "country": "USA"
    },
    {
      "id": 374,
      "name": "Chifeng, China - Hongshan Wanda Plaza",
      "latitude": 42.259573,
      "longitude": 118.92238,
      "city": "Chifeng",
      "state": "Inner Mongolia",
      "country": "China"
    },
    {
      "id": 375,
      "name": "West Des Moines, IA",
      "latitude": 41.598857,
      "longitude": -93.806331,
      "city": "West Des Moines",
      "state": "IA",
      "country": "USA"
    },
    {
      "id": 376,
      "name": "Tucker, GA",
      "latitude": 33.852378,
      "longitude": -84.207439,
      "city": "Tucker",
      "state": "GA",
      "country": "USA"
    },
    {
      "id": 377,
      "name": "Deltona, FL",
      "latitude": 28.949897,
      "longitude": -81.250805,
      "city": "Deltona",
      "state": "FL",
      "country": "USA"
    },
    {
      "id": 378,
      "name": "Alès, France",
      "latitude": 44.109526,
      "longitude": 4.100429,
      "city": "Alès",
      "state": "Occitanie",
      "country": "France"
    },
    {
      "id": 379,
      "name": "Hønefoss, Norway",
      "latitude": 60.145006,
      "longitude": 10.248761,
      "city": "Hønefoss",
      "state": "Buskerud",
      "country": "Norway"
    },
    {
      "id": 380,
      "name": "Middletown, OH",
      "latitude": 39.499283,
      "longitude": -84.344317,
      "city": "Middletown",
      "state": "OH",
      "country": "USA"
    },
    {
      "id": 381,
      "name": "Chongqing, China - Ciqikou Backstreet",
      "latitude": 29.57907,
      "longitude": 106.4475,
      "city": "Chongqing",
      "state": "Chongqing",
      "country": "China"
    },
    {
      "id": 382,
      "name": "Binzhou, China - Ginza Home Furnishing",
      "latitude": 37.380441,
      "longitude": 117.993779,
      "city": "Binzhou",
      "state": "Shandong",
      "country": "China"
    },
    {
      "id": 383,
      "name": "Yokohama, Japan - Honmoku",
      "latitude": 35.426343,
      "longitude": 139.666617,
      "city": "Yokohama",
      "state": "Kanagawa",
      "country": "Japan"
    },
    {
      "id": 384,
      "name": "Wuxi, China - Hongdou Wanhua City (International Plaza)",
      "latitude": 31.586683,
      "longitude": 120.304766,
      "city": "Wuxi",
      "state": "Jiangsu",
      "country": "China"
    },
    {
      "id": 385,
      "name": "Zhongshan, China - Daxin Metropolis (Ocean Store)",
      "latitude": 22.508432,
      "longitude": 113.425667,
      "city": "Zhongshan",
      "state": "Guangdong",
      "country": "China"
    },
    {
      "id": 386,
      "name": "Yulin, China - Yuzhou Wanda Plaza",
      "latitude": 22.641384,
      "longitude": 110.187877,
      "city": "Yulin",
      "state": "Guangxi",
      "country": "China"
    },
    {
      "id": 387,
      "name": "Wörrstadt, Germany",
      "latitude": 49.84,
      "longitude": 8.14368,
      "city": "Wörrstadt",
      "state": "Rhineland-Palatinate",
      "country": "Germany"
    },
    {
      "id": 388,
      "name": "Guangzhou, China - Hampton by Hilton Wenchong",
      "latitude": 23.10754,
      "longitude": 113.488361,
      "city": "Guangzhou",
      "state": "Guangdong",
      "country": "China"
    },
    {
      "id": 389,
      "name": "Austin, TX - Spirit of Texas Dr",
      "latitude": 30.210532,
      "longitude": -97.666642,
      "city": "Austin",
      "state": "TX",
      "country": "USA"
    },
    {
      "id": 390,
      "name": "Mt. Jackson, VA",
      "latitude": 38.760227,
      "longitude": -78.63121,
      "city": "Mt. Jackson",
      "state": "VA",
      "country": "USA"
    },
    {
      "id": 391,
      "name": "Staunton, VA",
      "latitude": 38.133486,
      "longitude": -79.043469,
      "city": "Staunton",
      "state": "VA",
      "country": "USA"
    },
    {
      "id": 392,
      "name": "Central Coast, NSW",
      "latitude": -33.3101,
      "longitude": 151.420682,
      "city": "Tuggerah",
      "state": "NSW",
      "country": "Australia"
    },
    {
      "id": 393,
      "name": "Charnock Richard, UK - Northbound",
      "latitude": 53.630562,
      "longitude": -2.692578,
      "city": "Chorley",
      "state": "England",
      "country": "United Kingdom"
    },
    {
      "id": 394,
      "name": "Sittensen, Germany",
      "latitude": 53.287483,
      "longitude": 9.508043,
      "city": "Sittensen",
      "state": "Lower Saxony",
      "country": "Germany"
    },
    {
      "id": 395,
      "name": "Plano, TX - W Parker Rd",
      "latitude": 33.037711,
      "longitude": -96.707066,
      "city": "Plano",
      "state": "TX",
      "country": "USA"
    },
    {
      "id": 396,
      "name": "Port Charlotte, FL",
      "latitude": 27.013161,
      "longitude": -82.143931,
      "city": "Port Charlotte",
      "state": "FL",
      "country": "USA"
    },
    {
      "id": 397,
      "name": "Folsom, CA - Prairie City Rd",
      "latitude": 38.648802,
      "longitude": -121.164568,
      "city": "Folsom",
      "state": "CA",
      "country": "USA"
    },
    {
      "id": 398,
      "name": "Bathurst, NSW",
      "latitude": -33.419063,
      "longitude": 149.586679,
      "city": "Bathurst",
      "state": "NSW",
      "country": "Australia"
    },
    {
      "id": 399,
      "name": "Kings Park, WA, Australia",
      "latitude": -31.953357,
      "longitude": 115.83908,
      "city": "Perth",
      "state": "WA",
      "country": "Australia"
    },
    {
      "id": 400,
      "name": "Lampasas, TX",
      "latitude": 31.063752,
      "longitude": -98.162213,
      "city": "Lampasas",
      "state": "TX",
      "country": "USA"
    },
    {
      "id": 401,
      "name": "Citrus Heights, CA",
      "latitude": 38.709192,
      "longitude": -121.313731,
      "city": "Citrus Heights",
      "state": "CA",
      "country": "USA"
    },
    {
      "id": 402,
      "name": "Maple Creek, SK",
      "latitude": 49.908122,
      "longitude": -109.471494,
      "city": "Maple Creek",
      "state": "SK",
      "country": "Canada"
    },
    {
      "id": 403,
      "name": "Moose Jaw, SK",
      "latitude": 50.405111,
      "longitude": -105.534017,
      "city": "Moose Jaw",
      "state": "SK",
      "country": "Canada"
    },
    {
      "id": 404,
      "name": "Bogotá, Colombia",
      "latitude": 4.667088,
      "longitude": -74.053634,
      "city": "Bogotá",
      "state": "Distrito Capital",
      "country": "Colombia"
    },
    {
      "id": 405,
      "name": "Gatlinburg, TN",
      "latitude": 35.726725,
      "longitude": -83.479589,
      "city": "Gatlinburg",
      "state": "TN",
      "country": "USA"
    },
    {
      "id": 406,
      "name": "Cangzhou, China - Mengcun Service Area (Shanghai bound)",
      "latitude": 38.08843,
      "longitude": 117.023422,
      "city": "Cangzhou",
      "state": "Hebei",
      "country": "China"
    },
    {
      "id": 407,
      "name": "Suzhou, China - Shangri-La Hotel",
      "latitude": 31.29784,
      "longitude": 120.565,
      "city": "Suzhou",
      "state": "Jiangsu",
      "country": "China"
    },
    {
      "id": 408,
      "name": "Maple Shade, NJ",
      "latitude": 39.937134,
      "longitude": -74.970511,
      "city": "Maple Shade",
      "state": "NJ",
      "country": "USA"
    },
    {
      "id": 409,
      "name": "Changsha, China - Yuelu Marriott Hotel",
      "latitude": 28.211753,
      "longitude": 112.937763,
      "city": "Changsha",
      "state": "Hunan",
      "country": "China"
    },
    {
      "id": 410,
      "name": "Copiague, NY",
      "latitude": 40.688444,
      "longitude": -73.4055,
      "city": "Copiague",
      "state": "NY",
      "country": "USA"
    },
    {
      "id": 411,
      "name": "Suining, China - Shehong Wanda Plaza",
      "latitude": 30.859018,
      "longitude": 105.416614,
      "city": "Suining",
      "state": "Sichuan",
      "country": "China"
    },
    {
      "id": 412,
      "name": "Santa Rosa, CA",
      "latitude": 38.459554,
      "longitude": -122.73023,
      "city": "Santa Rosa",
      "state": "CA",
      "country": "USA"
    },
    {
      "id": 413,
      "name": "North Wales, PA",
      "latitude": 40.219356,
      "longitude": -75.247211,
      "city": "North Wales",
      "state": "PA",
      "country": "USA"
    },
    {
      "id": 414,
      "name": "Meriden, CT",
      "latitude": 41.527018,
      "longitude": -72.773982,
      "city": "Meriden",
      "state": "CT",
      "country": "USA"
    },
    {
      "id": 415,
      "name": "Hyannis, MA",
      "latitude": 41.676619,
      "longitude": -70.307049,
      "city": "Hyannis",
      "state": "MA",
      "country": "USA"
    },
    {
      "id": 416,
      "name": "Burley, ID",
      "latitude": 42.56159,
      "longitude": -113.790261,
      "city": "Heyburn",
      "state": "ID",
      "country": "USA"
    },
    {
      "id": 417,
      "name": "Rutland, VT",
      "latitude": 43.617562,
      "longitude": -72.957208,
      "city": "Rutland",
      "state": "VT",
      "country": "USA"
    },
    {
      "id": 418,
      "name": "Hulun Buir, China - Jinma Outlet Shopping Plaza",
      "latitude": 49.21953,
      "longitude": 119.755655,
      "city": "Hulun Buir",
      "state": "Inner Mongolia",
      "country": "China"
    },
    {
      "id": 419,
      "name": "Woodbridge, NJ",
      "latitude": 40.535862,
      "longitude": -74.297271,
      "city": "Woodbridge",
      "state": "NJ",
      "country": "USA"
    },
    {
      "id": 420,
      "name": "Bristol, VA - Euclid Ave",
      "latitude": 36.60191,
      "longitude": -82.191436,
      "city": "Bristol",
      "state": "VA",
      "country": "USA"
    },
    {
      "id": 421,
      "name": "Woodcliff Lake, NJ",
      "latitude": 41.04175,
      "longitude": -74.073701,
      "city": "Woodcliff Lake",
      "state": "NJ",
      "country": "USA"
    },
    {
      "id": 422,
      "name": "Strymoniko, Greece",
      "latitude": 41.043306,
      "longitude": 23.313322,
      "city": "Strimoniko",
      "state": "Macedonia",
      "country": "Greece"
    },
    {
      "id": 423,
      "name": "Sicamous, BC",
      "latitude": 50.837325,
      "longitude": -118.967635,
      "city": "Sicamous",
      "state": "BC",
      "country": "Canada"
    },
    {
      "id": 424,
      "name": "Zhongshan, China - Daxin Xinduhui (Xinghui Store)",
      "latitude": 22.488726,
      "longitude": 113.368022,
      "city": "Zhongshan",
      "state": "Guangdong",
      "country": "China"
    },
    {
      "id": 425,
      "name": "Lafayette, LA",
      "latitude": 30.26645,
      "longitude": -91.992688,
      "city": "Lafayette",
      "state": "LA",
      "country": "USA"
    },
    {
      "id": 426,
      "name": "Udon Thani, Thailand - VT Namnuang",
      "latitude": 17.354538,
      "longitude": 102.823041,
      "city": "Udon Thani",
      "state": "Udon Thani",
      "country": "Thailand"
    },
    {
      "id": 427,
      "name": "Sligo, Ireland",
      "latitude": 54.328651,
      "longitude": -8.502721,
      "city": "Sligo",
      "state": "Connacht",
      "country": "Ireland"
    },
    {
      "id": 428,
      "name": "East Petersburg, PA",
      "latitude": 40.09332,
      "longitude": -76.352002,
      "city": "East Petersburg",
      "state": "PA",
      "country": "USA"
    },
    {
      "id": 429,
      "name": "Sevilla, Spain - Av. Ing. José Luis Prats",
      "latitude": 37.286036,
      "longitude": -5.939105,
      "city": "Dos Hermanas",
      "state": "Andalusia",
      "country": "Spain"
    },
    {
      "id": 430,
      "name": "Taif, Saudi Arabia",
      "latitude": 21.277542,
      "longitude": 40.447038,
      "city": "Taif",
      "state": "Mecca Province",
      "country": "Saudi Arabia"
    },
    {
      "id": 431,
      "name": "Shanghai, China - Zhongsheng World Mall",
      "latitude": 31.112527,
      "longitude": 121.3934,
      "city": "Shanghai",
      "state": "Shanghai",
      "country": "China"
    },
    {
      "id": 432,
      "name": "Chongqing, China - Aegean Shopping Park",
      "latitude": 29.648169,
      "longitude": 106.554915,
      "city": "Chongqing",
      "state": "Chongqing",
      "country": "China"
    },
    {
      "id": 433,
      "name": "Newark, NJ - Lindbergh Rd",
      "latitude": 40.691573,
      "longitude": -74.184322,
      "city": "Newark",
      "state": "NJ",
      "country": "USA"
    },
    {
      "id": 434,
      "name": "Taizhou, China - Jiangyan Sanshui Plaza",
      "latitude": 32.507631,
      "longitude": 120.142881,
      "city": "Taizhou",
      "state": "Jiangsu",
      "country": "China"
    },
    {
      "id": 435,
      "name": "Aston, PA",
      "latitude": 39.84348,
      "longitude": -75.426067,
      "city": "Aston",
      "state": "PA",
      "country": "USA"
    },
    {
      "id": 436,
      "name": "Jamestown, ND",
      "latitude": 46.884658,
      "longitude": -98.719555,
      "city": "Jamestown",
      "state": "ND",
      "country": "USA"
    },
    {
      "id": 437,
      "name": "Lynchburg, VA",
      "latitude": 37.32486,
      "longitude": -79.190523,
      "city": "Lynchburg",
      "state": "VA",
      "country": "USA"
    },
    {
      "id": 438,
      "name": "Williamsport, PA",
      "latitude": 41.2328,
      "longitude": -77.019865,
      "city": "Williamsport",
      "state": "PA",
      "country": "USA"
    },
    {
      "id": 439,
      "name": "East Palo Alto, CA - 1700 E Bayshore Rd",
      "latitude": 37.460392,
      "longitude": -122.138404,
      "city": "East Palo Alto",
      "state": "CA",
      "country": "USA"
    },
    {
      "id": 440,
      "name": "Sault Ste. Marie, MI",
      "latitude": 46.464666,
      "longitude": -84.385741,
      "city": "Sault Ste. Marie",
      "state": "MI",
      "country": "USA"
    },
    {
      "id": 441,
      "name": "Gilman, IL",
      "latitude": 40.752202,
      "longitude": -87.996464,
      "city": "Gilman",
      "state": "IL",
      "country": "USA"
    },
    {
      "id": 442,
      "name": "Madisonville, TX",
      "latitude": 30.966224,
      "longitude": -95.879546,
      "city": "Madisonville",
      "state": "TX",
      "country": "USA"
    },
    {
      "id": 443,
      "name": "Hualien, Taiwan - Huilan",
      "latitude": 23.938327,
      "longitude": 121.595392,
      "city": "Hualien",
      "state": "Hualien",
      "country": "Taiwan"
    },
    {
      "id": 444,
      "name": "Chevy Chase, MD",
      "latitude": 38.996112,
      "longitude": -77.075633,
      "city": "Chevy Chase",
      "state": "MD",
      "country": "USA"
    },
    {
      "id": 445,
      "name": "Johnson City, TN",
      "latitude": 36.302114,
      "longitude": -82.337208,
      "city": "Johnson City",
      "state": "TN",
      "country": "USA"
    },
    {
      "id": 446,
      "name": "Dryden, ON",
      "latitude": 49.785628,
      "longitude": -92.809984,
      "city": "Dryden",
      "state": "ON",
      "country": "Canada"
    },
    {
      "id": 447,
      "name": "Edgewood, PA",
      "latitude": 40.425862,
      "longitude": -79.88779,
      "city": "Edgewood",
      "state": "PA",
      "country": "USA"
    },
    {
      "id": 448,
      "name": "Bayan Lepas, Malaysia",
      "latitude": 5.333455,
      "longitude": 100.307386,
      "city": "Bayan Lepas",
      "state": "Pulau Pinang",
      "country": "Malaysia"
    },
    {
      "id": 449,
      "name": "Saraburi, Thailand - Robinson Saraburi",
      "latitude": 14.540113,
      "longitude": 100.952249,
      "city": "Saraburi",
      "state": "Saraburi",
      "country": "Thailand"
    },
    {
      "id": 450,
      "name": "Jeddah, Saudi Arabia - Al Amir Sultan",
      "latitude": 21.583839,
      "longitude": 39.140636,
      "city": "Jeddah",
      "state": "Mecca Province",
      "country": "Saudi Arabia"
    },
    {
      "id": 451,
      "name": "Tak, Thailand - Big C Tak",
      "latitude": 16.867135,
      "longitude": 99.135651,
      "city": "Tak",
      "state": "Tak",
      "country": "Thailand"
    },
    {
      "id": 452,
      "name": "Tacna, AZ",
      "latitude": 32.690043,
      "longitude": -113.953584,
      "city": "Tacna",
      "state": "AZ",
      "country": "USA"
    },
    {
      "id": 453,
      "name": "Bakersfield, CA - Coffee Rd",
      "latitude": 35.400275,
      "longitude": -119.091711,
      "city": "Bakersfield",
      "state": "CA",
      "country": "USA"
    },
    {
      "id": 454,
      "name": "Phetchabun, Thailand - Lomsak",
      "latitude": 16.755781,
      "longitude": 101.20013,
      "city": "Phetchabun",
      "state": "Phetchabun",
      "country": "Thailand"
    },
    {
      "id": 455,
      "name": "Mosjøen, Norway - Halsøysenteret",
      "latitude": 65.862589,
      "longitude": 13.197694,
      "city": "Mosjøen",
      "state": "Nordland",
      "country": "Norway"
    },
    {
      "id": 456,
      "name": "Riyadh, Saudi Arabia - The View Mall",
      "latitude": 24.69697,
      "longitude": 46.726673,
      "city": "Riyadh",
      "state": "Riyadh Province",
      "country": "Saudi Arabia"
    },
    {
      "id": 457,
      "name": "Vestmannaeyjabær, Iceland",
      "latitude": 63.442765,
      "longitude": -20.27188,
      "city": "Vestmannaeyjar",
      "state": "Southern Region",
      "country": "Iceland"
    },
    {
      "id": 458,
      "name": "Chifeng, China - Taihe Genting",
      "latitude": 42.231562,
      "longitude": 118.875375,
      "city": "Chifeng",
      "state": "Inner Mongolia",
      "country": "China"
    },
    {
      "id": 459,
      "name": "Easton, MD",
      "latitude": 38.759257,
      "longitude": -76.061405,
      "city": "Easton",
      "state": "MD",
      "country": "USA"
    },
    {
      "id": 460,
      "name": "Murrieta, CA",
      "latitude": 33.566346,
      "longitude": -117.212632,
      "city": "Murrieta",
      "state": "CA",
      "country": "USA"
    },
    {
      "id": 461,
      "name": "Maribor, Slovenia",
      "latitude": 46.533005,
      "longitude": 15.699267,
      "city": "Maribor",
      "state": "Drava",
      "country": "Slovenia"
    },
    {
      "id": 462,
      "name": "Red Deer County, AB",
      "latitude": 52.216364,
      "longitude": -113.815767,
      "city": "Red Deer County",
      "state": "AB",
      "country": "Canada"
    },
    {
      "id": 463,
      "name": "Kliplev, Denmark",
      "latitude": 54.940091,
      "longitude": 9.378875,
      "city": "Aabenraa",
      "state": "Syddanmark",
      "country": "Denmark"
    },
    {
      "id": 464,
      "name": "Dunnigan, CA",
      "latitude": 38.862861,
      "longitude": -121.951538,
      "city": "Dunnigan",
      "state": "CA",
      "country": "USA"
    },
    {
      "id": 465,
      "name": "Erftstadt, Germany",
      "latitude": 50.796469,
      "longitude": 6.780077,
      "city": "Erftstadt",
      "state": "North Rhine-Westphalia",
      "country": "Germany"
    },
    {
      "id": 466,
      "name": "North Canaan, CT",
      "latitude": 42.024331,
      "longitude": -73.322684,
      "city": "Canaan",
      "state": "CT",
      "country": "USA"
    },
    {
      "id": 467,
      "name": "Swift Current, SK",
      "latitude": 50.306366,
      "longitude": -107.779925,
      "city": "Swift Current",
      "state": "SK",
      "country": "Canada"
    },
    {
      "id": 468,
      "name": "Nipawin, SK",
      "latitude": 53.348279,
      "longitude": -104.025828,
      "city": "Nipawin",
      "state": "SK",
      "country": "Canada"
    },
    {
      "id": 469,
      "name": "St. Louis Park, MN",
      "latitude": 44.935964,
      "longitude": -93.347857,
      "city": "St. Louis Park",
      "state": "MN",
      "country": "USA"
    },
    {
      "id": 470,
      "name": "Freehold, NJ",
      "latitude": 40.238319,
      "longitude": -74.228021,
      "city": "Freehold",
      "state": "NJ",
      "country": "USA"
    },
    {
      "id": 471,
      "name": "London, ON",
      "latitude": 42.917358,
      "longitude": -81.208505,
      "city": "London",
      "state": "ON",
      "country": "Canada"
    },
    {
      "id": 472,
      "name": "White River, ON",
      "latitude": 48.591814,
      "longitude": -85.27244,
      "city": "White River",
      "state": "ON",
      "country": "Canada"
    },
    {
      "id": 473,
      "name": "Brühl, Germany",
      "latitude": 49.409872,
      "longitude": 8.541697,
      "city": "Brühl",
      "state": "Baden-Württemberg",
      "country": "Germany"
    },
    {
      "id": 474,
      "name": "Kenora, ON",
      "latitude": 49.759452,
      "longitude": -94.473066,
      "city": "Kenora",
      "state": "ON",
      "country": "Canada"
    },
    {
      "id": 475,
      "name": "White Hills, AZ",
      "latitude": 35.700205,
      "longitude": -114.476091,
      "city": "Willow Beach",
      "state": "AZ",
      "country": "USA"
    },
    {
      "id": 476,
      "name": "Pompano Beach, FL",
      "latitude": 26.27553,
      "longitude": -80.152819,
      "city": "Pompano Beach",
      "state": "FL",
      "country": "USA"
    },
    {
      "id": 477,
      "name": "Nashville, TN - Percy Priest Dr",
      "latitude": 36.154256,
      "longitude": -86.627208,
      "city": "Nashville",
      "state": "TN",
      "country": "USA"
    },
    {
      "id": 478,
      "name": "Lynnwood, WA - Mukilteo Speedway",
      "latitude": 47.873979,
      "longitude": -122.273736,
      "city": "Lynnwood",
      "state": "WA",
      "country": "USA"
    },